{"fetched_at":"2026-07-06T01:22:34.805Z","stations":[{"name":"Greenpoint Ave & Manhattan Ave","lat":40.73026,"lng":-73.95394,"capacity":27},{"name":"Lafayette Ave & Hunts Point Ave","lat":40.81657,"lng":-73.88816,"capacity":22},{"name":"Longfellow Ave & Aldus St","lat":40.82319,"lng":-73.88763,"capacity":24},{"name":"10 St & 7 Ave","lat":40.66621,"lng":-73.982,"capacity":23},{"name":"Vesey St & Church St","lat":40.71222,"lng":-74.01047,"capacity":78},{"name":"4 Ave & E 12 St","lat":40.73265,"lng":-73.99011,"capacity":39},{"name":"Kingsland Ave & Nassau Ave","lat":40.72577,"lng":-73.94173,"capacity":25},{"name":"N Henry St & Norman Ave","lat":40.7277,"lng":-73.94395,"capacity":11},{"name":"Irving Ave & Palmetto St","lat":40.698,"lng":-73.9127,"capacity":20},{"name":"Bergen St & Vanderbilt Ave","lat":40.67944,"lng":-73.96804,"capacity":27},{"name":"South St & Broad St","lat":40.70189,"lng":-74.0109,"capacity":31},{"name":"68 Dr & 112 St","lat":40.72704,"lng":-73.84128,"capacity":12},{"name":"24 Ave & 87 St","lat":40.7654,"lng":-73.88256,"capacity":20},{"name":"78 St & Ridge Blvd","lat":40.62994,"lng":-74.03121,"capacity":12},{"name":"Colonial Rd & 89 St","lat":40.62254,"lng":-74.03726,"capacity":12},{"name":"Verona Pl & Fulton St","lat":40.68036,"lng":-73.94768,"capacity":19},{"name":"Shore Rd & 86 St","lat":40.62561,"lng":-74.04079,"capacity":12},{"name":"Cooper Ave & 65 Pl","lat":40.69953,"lng":-73.88873,"capacity":23},{"name":"E 188 St & Hughes Ave","lat":40.8561,"lng":-73.88625,"capacity":21},{"name":"Rutland Rd & E 45 St","lat":40.66034,"lng":-73.93618,"capacity":23},{"name":"Henry Hudson Pkwy E & W 231 St","lat":40.88336,"lng":-73.91505,"capacity":12},{"name":"President St & Nostrand Ave","lat":40.66811,"lng":-73.9505,"capacity":28},{"name":"61 St & Queens Blvd","lat":40.74091,"lng":-73.90273,"capacity":27},{"name":"Dawson St & Intervale Ave","lat":40.82,"lng":-73.89726,"capacity":19},{"name":"Madison St & Seneca Ave","lat":40.70183,"lng":-73.90625,"capacity":22},{"name":"Caton Ave & E 10 St","lat":40.64848,"lng":-73.97058,"capacity":30},{"name":"34 St & 48 Ave","lat":40.74082,"lng":-73.93147,"capacity":25},{"name":"Prospect Pl & Underhill Ave","lat":40.67697,"lng":-73.96579,"capacity":23},{"name":"E New York Ave & Troy Ave","lat":40.66227,"lng":-73.93762,"capacity":21},{"name":"Arthur Ave & E 183 St","lat":40.85307,"lng":-73.88953,"capacity":25},{"name":"36 St & 3 Ave","lat":40.65572,"lng":-74.00666,"capacity":30},{"name":"34 Ave & 13 St","lat":40.76388,"lng":-73.93648,"capacity":19},{"name":"E 174 St & Walton Ave","lat":40.84481,"lng":-73.91204,"capacity":27},{"name":"Sedgwick Ave & W 231 St","lat":40.87512,"lng":-73.90126,"capacity":19},{"name":"Van Brunt St & Van Dyke St","lat":40.67583,"lng":-74.01473,"capacity":24},{"name":"3 Ave & E 109 St","lat":40.79338,"lng":-73.94329,"capacity":25},{"name":"Rivington St & Chrystie St","lat":40.7211,"lng":-73.99193,"capacity":64},{"name":"Maple St & Flatbush Ave","lat":40.66026,"lng":-73.96045,"capacity":24},{"name":"Wilson Ave & Moffat St","lat":40.68906,"lng":-73.90506,"capacity":32},{"name":"Turner Pl & Coney Island Ave","lat":40.64521,"lng":-73.97073,"capacity":20},{"name":"Clinton St & 4 Place","lat":40.67836,"lng":-74.00015,"capacity":25},{"name":"Arthur Ave & E Tremont Ave","lat":40.84616,"lng":-73.89322,"capacity":19},{"name":"Broadway & Ellwood St","lat":40.86206,"lng":-73.92972,"capacity":19},{"name":"Anthony Ave & E 175 St","lat":40.84647,"lng":-73.90387,"capacity":19},{"name":"Warren St & Smith St","lat":40.68542,"lng":-73.99128,"capacity":33},{"name":"Yellowstone Blvd & 68 Ave","lat":40.7263,"lng":-73.84841,"capacity":16},{"name":"34 Ave & Vernon Blvd","lat":40.76535,"lng":-73.93986,"capacity":30},{"name":"Wilkins Ave & Crotona Park E","lat":40.8353,"lng":-73.89513,"capacity":19},{"name":"Hazen St & 20 Ave","lat":40.77209,"lng":-73.89517,"capacity":23},{"name":"51 Ave & Junction Blvd","lat":40.74087,"lng":-73.86772,"capacity":19},{"name":"55 Ave & 97 Pl","lat":40.73892,"lng":-73.86367,"capacity":19},{"name":"E 53 St & 3 Ave","lat":40.75763,"lng":-73.96931,"capacity":41},{"name":"Jerome Ave & W Fordham Rd","lat":40.86294,"lng":-73.90108,"capacity":24},{"name":"E 3 St & 1 Ave","lat":40.72468,"lng":-73.98783,"capacity":59},{"name":"5 Ave & W 131 St","lat":40.81014,"lng":-73.93973,"capacity":20},{"name":"Central Park W & W 72 St","lat":40.77579,"lng":-73.97621,"capacity":51},{"name":"Isham St & Broadway","lat":40.86788,"lng":-73.91968,"capacity":29},{"name":"Pacific St & Classon Ave","lat":40.67919,"lng":-73.95879,"capacity":21},{"name":"E 201 St & Briggs Ave","lat":40.87207,"lng":-73.88459,"capacity":19},{"name":"62 St & 43 Ave","lat":40.74261,"lng":-73.903,"capacity":20},{"name":"W 59 St & 10 Ave","lat":40.77051,"lng":-73.98804,"capacity":117},{"name":"Pacific St & Sackman St","lat":40.67522,"lng":-73.9061,"capacity":19},{"name":"Walker St & Baxter St","lat":40.71741,"lng":-73.99957,"capacity":47},{"name":"Sunken Meadow Comfort Station","lat":40.79558,"lng":-73.91906,"capacity":25},{"name":"56 Dr & 59 St","lat":40.72403,"lng":-73.90853,"capacity":19},{"name":"86 St & Ridge Blvd","lat":40.62402,"lng":-74.03396,"capacity":16},{"name":"62 Dr & 110 St","lat":40.73632,"lng":-73.84904,"capacity":14},{"name":"Seneca Ave & Irvine St","lat":40.81873,"lng":-73.88862,"capacity":19},{"name":"E 106 St & Lexington Ave","lat":40.79198,"lng":-73.94599,"capacity":27},{"name":"Franklin St & Dupont St","lat":40.73564,"lng":-73.95866,"capacity":27},{"name":"Austin St & 76 Ave","lat":40.71612,"lng":-73.83735,"capacity":16},{"name":"Lenox Rd & E 43 St","lat":40.65496,"lng":-73.93765,"capacity":21},{"name":"Stanton St & Norfolk St","lat":40.72075,"lng":-73.98627,"capacity":49},{"name":"Thomas S. Boyland St & Macon St","lat":40.68491,"lng":-73.91493,"capacity":21},{"name":"W 100 St & Broadway","lat":40.79737,"lng":-73.97041,"capacity":39},{"name":"E 165 St & Fox St","lat":40.82394,"lng":-73.89402,"capacity":27},{"name":"Edgecombe Ave & W 145 St","lat":40.8235,"lng":-73.94386,"capacity":31},{"name":"Greene Ave & Nostrand Ave","lat":40.68833,"lng":-73.95092,"capacity":23},{"name":"2 Ave & 36 St","lat":40.65709,"lng":-74.0087,"capacity":43},{"name":"Calyer St & West St","lat":40.72693,"lng":-73.95863,"capacity":35},{"name":"E 6 St & Ave B","lat":40.72454,"lng":-73.98185,"capacity":95},{"name":"India St & Manhattan Ave","lat":40.73232,"lng":-73.95509,"capacity":50},{"name":"St Marks Ave & Thomas S. Boyland St","lat":40.67313,"lng":-73.91387,"capacity":21},{"name":"Shore Rd & 4 Ave","lat":40.6115,"lng":-74.03513,"capacity":12},{"name":"E 170 St & Sheridan Ave","lat":40.83832,"lng":-73.9126,"capacity":30},{"name":"1 Ave & E 110 St","lat":40.79233,"lng":-73.9383,"capacity":25},{"name":"Woodward Ave & Harman St","lat":40.70793,"lng":-73.91092,"capacity":19},{"name":"Rogers Ave & Snyder Ave","lat":40.64871,"lng":-73.95208,"capacity":23},{"name":"Grand St & Elizabeth St","lat":40.71882,"lng":-73.99596,"capacity":45},{"name":"Morningside Dr & Amsterdam Ave","lat":40.81029,"lng":-73.95736,"capacity":35},{"name":"6 Ave & 60 St","lat":40.6382,"lng":-74.01382,"capacity":22},{"name":"Columbus Ave & W 72 St","lat":40.77706,"lng":-73.97898,"capacity":67},{"name":"Broadway & Morris St","lat":40.70595,"lng":-74.01322,"capacity":69},{"name":"Grove St & Broadway","lat":40.69047,"lng":-73.92351,"capacity":31},{"name":"Park Ave & E 41 St","lat":40.75158,"lng":-73.97791,"capacity":109},{"name":"W 107 St & Columbus Ave","lat":40.79976,"lng":-73.96211,"capacity":23},{"name":"E 93 St & 2 Ave","lat":40.78245,"lng":-73.94892,"capacity":73},{"name":"Wilson Ave & Troutman St","lat":40.70166,"lng":-73.92754,"capacity":26},{"name":"Hull Ave & E 209 St","lat":40.87689,"lng":-73.87444,"capacity":14},{"name":"Borden Ave & Review Ave","lat":40.73866,"lng":-73.94094,"capacity":19},{"name":"Goulden Ave & Bedford Park Blvd","lat":40.87387,"lng":-73.89533,"capacity":19},{"name":"5 Ave & E 87 St","lat":40.78232,"lng":-73.95988,"capacity":39},{"name":"68 St & 5 Ave","lat":40.63416,"lng":-74.02058,"capacity":14},{"name":"Morris Ave & E 153 St","lat":40.82004,"lng":-73.92141,"capacity":19},{"name":"Sherman Ave & Thayer St","lat":40.86312,"lng":-73.92699,"capacity":21},{"name":"4 Ave & Shore Road Dr","lat":40.63703,"lng":-74.02214,"capacity":20},{"name":"India St Pier","lat":40.73173,"lng":-73.96124,"capacity":54},{"name":"Kingston Ave & E New York Ave","lat":40.66219,"lng":-73.94293,"capacity":21},{"name":"W 190 St & Broadway","lat":40.85649,"lng":-73.93297,"capacity":21},{"name":"W 133 St & 12 Ave","lat":40.82,"lng":-73.95909,"capacity":19},{"name":"Fort Hamilton Pkwy & 85 St","lat":40.62095,"lng":-74.02388,"capacity":14},{"name":"53 St & 2 Ave","lat":40.64744,"lng":-74.01885,"capacity":30},{"name":"Broadway & W 41 St","lat":40.75514,"lng":-73.98658,"capacity":55},{"name":"Montrose Ave & Bushwick Ave","lat":40.70768,"lng":-73.94016,"capacity":42},{"name":"W 52 St & 5 Ave","lat":40.75992,"lng":-73.97649,"capacity":61},{"name":"Ave C & McDonald Ave","lat":40.64034,"lng":-73.97915,"capacity":16},{"name":"E 20 St & Park Ave","lat":40.73827,"lng":-73.98752,"capacity":45},{"name":"E 51 St & Lexington Ave","lat":40.75715,"lng":-73.97208,"capacity":75},{"name":"Cauldwell Ave & E 161 St","lat":40.82188,"lng":-73.90752,"capacity":18},{"name":"Park Ave & E 124 St","lat":40.80456,"lng":-73.93969,"capacity":36},{"name":"Lafayette Ave & Franklin Ave","lat":40.68927,"lng":-73.95732,"capacity":27},{"name":"N 7 St & Driggs Ave","lat":40.71697,"lng":-73.95639,"capacity":53},{"name":"Willoughby Ave & Tompkins Ave","lat":40.69425,"lng":-73.94627,"capacity":19},{"name":"Columbia St & Lorraine St","lat":40.67471,"lng":-74.00756,"capacity":37},{"name":"Grand Concourse & E 164 St","lat":40.82961,"lng":-73.92146,"capacity":22},{"name":"Stagg St & Morgan Ave","lat":40.71068,"lng":-73.93372,"capacity":23},{"name":"W 171 St & St Nicholas Ave","lat":40.84294,"lng":-73.93863,"capacity":31},{"name":"Clinton St & Cherry St","lat":40.71147,"lng":-73.98673,"capacity":49},{"name":"53 Ave & 62 St","lat":40.73169,"lng":-73.90159,"capacity":19},{"name":"E 65 St & 2 Ave","lat":40.76472,"lng":-73.96222,"capacity":48},{"name":"Southern Blvd & E 174 St","lat":40.83673,"lng":-73.88793,"capacity":27},{"name":"Bergen St & Buffalo Ave","lat":40.6747,"lng":-73.92512,"capacity":21},{"name":"Nagle Ave & Ellwood St","lat":40.86012,"lng":-73.92849,"capacity":21},{"name":"Amsterdam Ave & W 186 St","lat":40.85111,"lng":-73.92881,"capacity":21},{"name":"41 Ave & 77 St","lat":40.74557,"lng":-73.8882,"capacity":24},{"name":"41 St & 3 Ave","lat":40.65251,"lng":-74.00891,"capacity":19},{"name":"Nassau Ave & Russell St","lat":40.72557,"lng":-73.94434,"capacity":51},{"name":"S 4 St & Roebling St","lat":40.71071,"lng":-73.95972,"capacity":41},{"name":"Sedgwick Ave & W Tremont Ave","lat":40.85304,"lng":-73.91831,"capacity":19},{"name":"Berry St & N 8 St","lat":40.71901,"lng":-73.95853,"capacity":27},{"name":"E 40 St & Park Ave","lat":40.75076,"lng":-73.97833,"capacity":123},{"name":"Willoughby Ave & Myrtle Ave","lat":40.69757,"lng":-73.93098,"capacity":19},{"name":"River Ave & E 153 St","lat":40.82441,"lng":-73.92818,"capacity":27},{"name":"Flushing Ave & Woodward Ave","lat":40.71246,"lng":-73.91873,"capacity":21},{"name":"Sterling St & Nostrand Ave","lat":40.66318,"lng":-73.95076,"capacity":23},{"name":"Broadway & E 19 St","lat":40.73829,"lng":-73.99006,"capacity":99},{"name":"Broad St & Bridge St","lat":40.70365,"lng":-74.01168,"capacity":49},{"name":"61 St & Borden Ave","lat":40.72558,"lng":-73.90417,"capacity":21},{"name":"Grand St & Havemeyer St","lat":40.71287,"lng":-73.95698,"capacity":31},{"name":"Washington Ave & Park Pl","lat":40.67583,"lng":-73.96331,"capacity":33},{"name":"Grand Ave & Bergen St","lat":40.67804,"lng":-73.96241,"capacity":25},{"name":"Ocean Ave & Crooke Ave","lat":40.65326,"lng":-73.96172,"capacity":27},{"name":"Madison Ave & E 99 St","lat":40.78949,"lng":-73.95243,"capacity":35},{"name":"Barrow St & Hudson St","lat":40.73172,"lng":-74.00674,"capacity":45},{"name":"Crotona Pkwy & Bronx Park S","lat":40.84784,"lng":-73.883,"capacity":25},{"name":"52 St & 6 Ave","lat":40.6427,"lng":-74.00944,"capacity":19},{"name":"Central Ave & Melrose St","lat":40.70112,"lng":-73.93039,"capacity":17},{"name":"E 33 St & 5 Ave","lat":40.74766,"lng":-73.98491,"capacity":60},{"name":"26 Ave & 2 St","lat":40.77684,"lng":-73.93463,"capacity":23},{"name":"35 St & 23 Ave","lat":40.77302,"lng":-73.91119,"capacity":28},{"name":"E 163 St & Tiffany St","lat":40.82108,"lng":-73.89507,"capacity":19},{"name":"E Mosholu Pkwy & Van Cortlandt Ave E","lat":40.87656,"lng":-73.88366,"capacity":22},{"name":"Boston Rd & Prospect Ave","lat":40.83325,"lng":-73.8966,"capacity":19},{"name":"3 St & 7 Ave","lat":40.67038,"lng":-73.9784,"capacity":27},{"name":"Brook Ave & E 141 St","lat":40.80962,"lng":-73.91787,"capacity":19},{"name":"Columbia Heights & Cranberry St","lat":40.70038,"lng":-73.99548,"capacity":37},{"name":"Goble Pl & Macombs Rd","lat":40.84407,"lng":-73.91726,"capacity":19},{"name":"E 56 St & Madison Ave","lat":40.76157,"lng":-73.97263,"capacity":33},{"name":"6 Ave & Walker St","lat":40.71979,"lng":-74.00522,"capacity":39},{"name":"Naples Terrace & Godwin Terrace","lat":40.87995,"lng":-73.90536,"capacity":25},{"name":"Amsterdam Ave & W 119 St","lat":40.80862,"lng":-73.95962,"capacity":29},{"name":"56 Ave & 92 St","lat":40.73649,"lng":-73.86995,"capacity":25},{"name":"Eastern Pkwy & Brooklyn Ave","lat":40.66939,"lng":-73.94514,"capacity":21},{"name":"44 St & 2 Ave","lat":40.6525,"lng":-74.01359,"capacity":19},{"name":"E 18 St & Church Ave","lat":40.64958,"lng":-73.96316,"capacity":31},{"name":"St James Pl & Pearl St","lat":40.71117,"lng":-74.00017,"capacity":27},{"name":"60 Ave & Otis Ave","lat":40.73715,"lng":-73.85614,"capacity":21},{"name":"Alexander Ave & E 134 St","lat":40.80747,"lng":-73.92711,"capacity":19},{"name":"Martense Ave & 108 St","lat":40.74214,"lng":-73.85418,"capacity":20},{"name":"Butler St & 27 Ave","lat":40.76521,"lng":-73.86483,"capacity":18},{"name":"Fulton Ave & St Paul's Pl","lat":40.83545,"lng":-73.90153,"capacity":19},{"name":"Cortelyou Rd & E 19 St","lat":40.64269,"lng":-73.96099,"capacity":23},{"name":"65 St & Broadway","lat":40.74937,"lng":-73.89739,"capacity":18},{"name":"Park Pl & Buffalo Ave","lat":40.67202,"lng":-73.92539,"capacity":20},{"name":"E 48 St & 5 Ave","lat":40.75725,"lng":-73.97806,"capacity":62},{"name":"Carlton Ave & Dean St","lat":40.68097,"lng":-73.97101,"capacity":29},{"name":"Fulton St & Williams Ave","lat":40.67709,"lng":-73.9008,"capacity":21},{"name":"Marble Hill Ave & W 225 St","lat":40.87471,"lng":-73.91099,"capacity":21},{"name":"E 58 St & 1 Ave (NE Corner)","lat":40.75892,"lng":-73.96226,"capacity":23},{"name":"Bailey Ave & W 229 St","lat":40.87449,"lng":-73.90467,"capacity":21},{"name":"Post Rd & W 251 St","lat":40.89561,"lng":-73.89793,"capacity":12},{"name":"Washington Park","lat":40.69178,"lng":-73.97373,"capacity":24},{"name":"E 98 St & Park Ave","lat":40.78813,"lng":-73.95206,"capacity":25},{"name":"Bainbridge Ave & E 193 St","lat":40.86415,"lng":-73.89245,"capacity":27},{"name":"E 5 St & Cooper Sq","lat":40.72769,"lng":-73.99099,"capacity":50},{"name":"Grand Concourse & E 199 St","lat":40.87142,"lng":-73.88839,"capacity":21},{"name":"Fulton St & Clermont Ave","lat":40.68416,"lng":-73.96922,"capacity":75},{"name":"Broadway & W 48 St","lat":40.76018,"lng":-73.98487,"capacity":103},{"name":"37 St & 13 Ave","lat":40.64166,"lng":-73.98505,"capacity":16},{"name":"Washington Ave & E 174 St","lat":40.84308,"lng":-73.90022,"capacity":19},{"name":"Sedgwick Ave & Hall of Fame Terrace","lat":40.85953,"lng":-73.9133,"capacity":19},{"name":"Jackson Mill Rd & 93 St","lat":40.75874,"lng":-73.87535,"capacity":21},{"name":"Southern Blvd & Tiffany St","lat":40.81819,"lng":-73.89414,"capacity":20},{"name":"E 128 St & Madison Ave","lat":40.80756,"lng":-73.93918,"capacity":23},{"name":"E 189 St & Bathgate Ave","lat":40.85859,"lng":-73.88821,"capacity":21},{"name":"Amsterdam Ave & W 162 St","lat":40.83618,"lng":-73.93979,"capacity":27},{"name":"72 St & 41 Ave","lat":40.7448,"lng":-73.89377,"capacity":26},{"name":"Carroll St & 6 Ave","lat":40.67409,"lng":-73.97873,"capacity":23},{"name":"Amsterdam Ave & W 180 St","lat":40.8474,"lng":-73.93121,"capacity":23},{"name":"Banker St & Meserole Ave","lat":40.72606,"lng":-73.95621,"capacity":31},{"name":"55 St & Northern Blvd","lat":40.75326,"lng":-73.90585,"capacity":23},{"name":"46 St & 28 Ave","lat":40.76333,"lng":-73.90878,"capacity":19},{"name":"9 Ave & W 33 St","lat":40.75257,"lng":-73.99676,"capacity":94},{"name":"Van Sinderen Ave & Truxton St","lat":40.6786,"lng":-73.90369,"capacity":23},{"name":"W Broadway & Watts St","lat":40.72323,"lng":-74.00314,"capacity":51},{"name":"Fort Washington Ave & W 190 St","lat":40.85691,"lng":-73.93566,"capacity":19},{"name":"Crotona Ave & E 183 St","lat":40.85157,"lng":-73.88475,"capacity":25},{"name":"W 35 St & 8 Ave","lat":40.75276,"lng":-73.9928,"capacity":57},{"name":"Convent Ave & W 151 St","lat":40.82831,"lng":-73.94292,"capacity":24},{"name":"Riverside Dr & W 78 St","lat":40.78414,"lng":-73.98362,"capacity":79},{"name":"W 148 St & Amsterdam Ave","lat":40.82708,"lng":-73.94591,"capacity":23},{"name":"5 Ave & 3 St","lat":40.67282,"lng":-73.98352,"capacity":30},{"name":"Pier 61 at Chelsea Piers","lat":40.74687,"lng":-74.00821,"capacity":43},{"name":"West End Ave & W 94 St","lat":40.79417,"lng":-73.97412,"capacity":31},{"name":"E 5 St & Ave C","lat":40.72299,"lng":-73.97995,"capacity":55},{"name":"21 St & Hoyt Ave S","lat":40.77465,"lng":-73.92371,"capacity":33},{"name":"Canal St & Rutgers St","lat":40.71427,"lng":-73.9899,"capacity":45},{"name":"Madison Ave & E 120 St","lat":40.80295,"lng":-73.94295,"capacity":30},{"name":"56 Dr & 61 St","lat":40.72368,"lng":-73.90458,"capacity":19},{"name":"Corona Ave & 111 St","lat":40.7408,"lng":-73.84978,"capacity":22},{"name":"37 Ave & 35 St","lat":40.75311,"lng":-73.92799,"capacity":26},{"name":"Hoyt St & Warren St","lat":40.68435,"lng":-73.98902,"capacity":35},{"name":"Webster Ave & Ford St","lat":40.85556,"lng":-73.89615,"capacity":23},{"name":"Bulova Ave & Brooklyn Queens Expressway W","lat":40.76251,"lng":-73.90253,"capacity":19},{"name":"63 Ave & 99 St","lat":40.73302,"lng":-73.85714,"capacity":18},{"name":"Prospect Pl & Nostrand Ave","lat":40.67428,"lng":-73.9503,"capacity":22},{"name":"23 Ave & 31 St","lat":40.77423,"lng":-73.91275,"capacity":27},{"name":"4 Ave & 76 St","lat":40.63005,"lng":-74.0255,"capacity":23},{"name":"5 Ave & 37 St","lat":40.65266,"lng":-74.00236,"capacity":30},{"name":"Valentine Ave & E 183 St","lat":40.85699,"lng":-73.89824,"capacity":23},{"name":"Kent Ave & Grand St","lat":40.71643,"lng":-73.96594,"capacity":45},{"name":"35 St & 30 Ave","lat":40.76548,"lng":-73.91812,"capacity":29},{"name":"Bushwick Ave & Dekalb Ave","lat":40.69502,"lng":-73.92825,"capacity":29},{"name":"Steinway St & Ditmars Blvd","lat":40.77272,"lng":-73.90613,"capacity":21},{"name":"3 St & 3 Ave","lat":40.67507,"lng":-73.98775,"capacity":79},{"name":"87 St & Roosevelt Ave","lat":40.74825,"lng":-73.87936,"capacity":23},{"name":"70 Rd & 112 St","lat":40.72371,"lng":-73.83959,"capacity":19},{"name":"Clinton Ave & Myrtle Ave","lat":40.69326,"lng":-73.9689,"capacity":33},{"name":"Chester Ave & 12 Ave","lat":40.64437,"lng":-73.98428,"capacity":21},{"name":"73 St & Ridge Blvd","lat":40.63349,"lng":-74.02976,"capacity":16},{"name":"Sheridan Ave & E 168 St","lat":40.83533,"lng":-73.9154,"capacity":22},{"name":"E 85 St & York Ave","lat":40.77537,"lng":-73.94803,"capacity":47},{"name":"Green St & McGuinness Blvd","lat":40.73396,"lng":-73.95204,"capacity":20},{"name":"Review Ave & Greenpoint Ave","lat":40.73425,"lng":-73.93777,"capacity":17},{"name":"64 St & 51 Ave","lat":40.73577,"lng":-73.90184,"capacity":19},{"name":"Jerome Ave & Anderson Ave","lat":40.83018,"lng":-73.92875,"capacity":19},{"name":"Stanton St & Mangin St","lat":40.71782,"lng":-73.97629,"capacity":19},{"name":"Columbus Ave & W 59 St","lat":40.76931,"lng":-73.98464,"capacity":43},{"name":"E 84 St & 1 Ave","lat":40.77566,"lng":-73.95069,"capacity":31},{"name":"9 Ave & W 204 St","lat":40.8617,"lng":-73.91856,"capacity":24},{"name":"W 92 St & Broadway","lat":40.7921,"lng":-73.9739,"capacity":24},{"name":"Shakespeare Ave & W 169 St","lat":40.83931,"lng":-73.92242,"capacity":20},{"name":"Amsterdam Ave & W 175 St","lat":40.84404,"lng":-73.93365,"capacity":23},{"name":"Broadway & Roebling St","lat":40.70925,"lng":-73.96063,"capacity":27},{"name":"W 211 St & 10 Ave","lat":40.86709,"lng":-73.9173,"capacity":20},{"name":"111 St & Roosevelt Ave","lat":40.75147,"lng":-73.8557,"capacity":21},{"name":"Steinway St & Broadway","lat":40.75906,"lng":-73.91898,"capacity":32},{"name":"Columbia St & Degraw St","lat":40.68593,"lng":-74.00242,"capacity":21},{"name":"E 7 St & Ave B","lat":40.72513,"lng":-73.98132,"capacity":69},{"name":"Home St & Westchester Ave","lat":40.82763,"lng":-73.88666,"capacity":21},{"name":"46 Ave & Junction Blvd","lat":40.74399,"lng":-73.86781,"capacity":19},{"name":"Meserole Ave & Manhattan Ave","lat":40.72709,"lng":-73.95299,"capacity":28},{"name":"E 68 St & 3 Ave","lat":40.76713,"lng":-73.96225,"capacity":36},{"name":"E Tremont Ave & E 176 St","lat":40.8478,"lng":-73.90188,"capacity":21},{"name":"92 St & 37 Ave","lat":40.75085,"lng":-73.87509,"capacity":19},{"name":"21 St & 20 Ave","lat":40.78394,"lng":-73.91273,"capacity":19},{"name":"Eastern Pkwy & Troy Ave","lat":40.66929,"lng":-73.93679,"capacity":24},{"name":"W 12 St & Hudson St","lat":40.73753,"lng":-74.00559,"capacity":45},{"name":"Fort Hamilton Pkwy & E 5 St","lat":40.64904,"lng":-73.97673,"capacity":23},{"name":"E 7 St & Ave A","lat":40.72622,"lng":-73.9838,"capacity":45},{"name":"Riverside Dr & W 148 St","lat":40.82911,"lng":-73.95043,"capacity":22},{"name":"W 74 St & Columbus Ave","lat":40.77857,"lng":-73.97755,"capacity":27},{"name":"New York Ave & Snyder Ave","lat":40.64868,"lng":-73.94635,"capacity":22},{"name":"43 St & Skillman Ave","lat":40.74693,"lng":-73.92082,"capacity":19},{"name":"55 St & 5 Ave","lat":40.64241,"lng":-74.01332,"capacity":28},{"name":"62 Dr & 97 St","lat":40.73236,"lng":-73.86256,"capacity":24},{"name":"Adam Clayton Powell Blvd & W 126 St","lat":40.8095,"lng":-73.94776,"capacity":33},{"name":"Marcy Ave & Lafayette Ave","lat":40.69008,"lng":-73.94791,"capacity":23},{"name":"W 163 St & Riverside Dr","lat":40.83928,"lng":-73.94545,"capacity":19},{"name":"Southern Blvd & E 149 St","lat":40.81189,"lng":-73.90419,"capacity":27},{"name":"Westchester Ave & E 156 St","lat":40.8178,"lng":-73.9052,"capacity":23},{"name":"St Ann's Ave & Bruckner Blvd","lat":40.8034,"lng":-73.91976,"capacity":17},{"name":"W 4 St & 7 Ave S","lat":40.73401,"lng":-74.00294,"capacity":60},{"name":"49 St & 31 Ave","lat":40.75806,"lng":-73.90983,"capacity":19},{"name":"W 21 St & 6 Ave","lat":40.74174,"lng":-73.99416,"capacity":74},{"name":"39 St & Queens Blvd","lat":40.74431,"lng":-73.92601,"capacity":21},{"name":"Madison St & Evergreen Ave","lat":40.69122,"lng":-73.91693,"capacity":18},{"name":"West Thames St","lat":40.70835,"lng":-74.01713,"capacity":73},{"name":"Morris Ave & E 171 St","lat":40.83899,"lng":-73.9109,"capacity":21},{"name":"39 St & 50 Ave","lat":40.73825,"lng":-73.92737,"capacity":19},{"name":"E 78 St & 2 Ave","lat":40.7728,"lng":-73.95578,"capacity":25},{"name":"Herkimer St & Eastern Pkwy","lat":40.67738,"lng":-73.90829,"capacity":20},{"name":"1 Ave & E 38 St","lat":40.7462,"lng":-73.97182,"capacity":39},{"name":"Harrison St & Hudson St","lat":40.71871,"lng":-74.009,"capacity":39},{"name":"Stanhope St & Fairview Ave","lat":40.70998,"lng":-73.91116,"capacity":17},{"name":"63 St & 59 Dr","lat":40.71832,"lng":-73.90128,"capacity":23},{"name":"3 Ave & E 71 St","lat":40.76879,"lng":-73.9614,"capacity":47},{"name":"Greenwich Ave & Charles St","lat":40.73524,"lng":-74.00027,"capacity":57},{"name":"Eastern Pkwy & Ralph Ave","lat":40.66852,"lng":-73.92284,"capacity":21},{"name":"E 144 St & Brook Ave","lat":40.81168,"lng":-73.91704,"capacity":19},{"name":"Crescent St & 35 Ave","lat":40.75963,"lng":-73.93215,"capacity":25},{"name":"E 35 St & Madison Ave","lat":40.74848,"lng":-73.98256,"capacity":50},{"name":"W 26 St & 10 Ave","lat":40.74972,"lng":-74.00295,"capacity":51},{"name":"37 Ave & 113 St","lat":40.75475,"lng":-73.8549,"capacity":30},{"name":"E 54 St & 1 Ave","lat":40.75627,"lng":-73.96418,"capacity":41},{"name":"Henry St & Bay St","lat":40.67251,"lng":-74.00495,"capacity":19},{"name":"Vernon Blvd & 41 Rd","lat":40.75524,"lng":-73.94857,"capacity":27},{"name":"Pacific St & Utica Ave","lat":40.6767,"lng":-73.93051,"capacity":20},{"name":"Bushwick Ave & Linden St","lat":40.69146,"lng":-73.92146,"capacity":29},{"name":"Cauldwell Ave & E 158 St","lat":40.81989,"lng":-73.90835,"capacity":19},{"name":"Riverside Dr & W 82 St","lat":40.78721,"lng":-73.98128,"capacity":75},{"name":"Smith St & 9 St","lat":40.6747,"lng":-73.99786,"capacity":23},{"name":"Lexington Ave & E 24 St","lat":40.74026,"lng":-73.98409,"capacity":79},{"name":"Morris Ave & E 142 St","lat":40.81447,"lng":-73.92496,"capacity":23},{"name":"Devoe St & Morgan Ave","lat":40.71381,"lng":-73.93515,"capacity":19},{"name":"Lenox Ave & W 146 St","lat":40.82111,"lng":-73.93597,"capacity":24},{"name":"Broadway & W 53 St","lat":40.76344,"lng":-73.98268,"capacity":85},{"name":"7 St & 5 Ave","lat":40.67049,"lng":-73.98542,"capacity":26},{"name":"Prospect Pl & Vanderbilt Ave","lat":40.67768,"lng":-73.96902,"capacity":27},{"name":"Grand Ave & 58 Ave","lat":40.72098,"lng":-73.90701,"capacity":20},{"name":"W 25 St & 6 Ave","lat":40.74395,"lng":-73.99145,"capacity":51},{"name":"68 St & 4 Ave","lat":40.63537,"lng":-74.02342,"capacity":16},{"name":"21 St & 23 Ave","lat":40.77856,"lng":-73.91905,"capacity":22},{"name":"Ogden Ave & Merriam Ave","lat":40.83914,"lng":-73.92596,"capacity":19},{"name":"34 Ave & 21 St","lat":40.76281,"lng":-73.93429,"capacity":23},{"name":"Suydam St & St Nicholas Ave","lat":40.70636,"lng":-73.91945,"capacity":17},{"name":"Broadway & Berry St","lat":40.71036,"lng":-73.9653,"capacity":34},{"name":"Jerome Ave & E Mosholu Pkwy N","lat":40.88031,"lng":-73.88426,"capacity":20},{"name":"Wards Meadow Comfort Station","lat":40.78294,"lng":-73.93077,"capacity":18},{"name":"Lafayette Ave & Ft Greene Pl","lat":40.687,"lng":-73.97665,"capacity":36},{"name":"Halsey St & Evergreen Ave","lat":40.68858,"lng":-73.91227,"capacity":22},{"name":"Matthews Ct & Coney Island Ave","lat":40.64235,"lng":-73.96951,"capacity":21},{"name":"Hart St & Wyckoff Ave","lat":40.70488,"lng":-73.91991,"capacity":24},{"name":"Broadway & W 157 St","lat":40.83403,"lng":-73.94511,"capacity":31},{"name":"Carroll St & 5 Ave","lat":40.67516,"lng":-73.98148,"capacity":27},{"name":"Dyckman St & Staff St","lat":40.86885,"lng":-73.93154,"capacity":19},{"name":"Clinton St & Tillary St","lat":40.69623,"lng":-73.99142,"capacity":34},{"name":"44 St & 3 Ave","lat":40.65117,"lng":-74.0114,"capacity":23},{"name":"Clay Ave & Claremont Pkwy","lat":40.83999,"lng":-73.90549,"capacity":21},{"name":"Park Ave & E 162 St","lat":40.82572,"lng":-73.91558,"capacity":21},{"name":"Taylor St & Bedford Ave","lat":40.70577,"lng":-73.96325,"capacity":23},{"name":"W 25 St & 8 Ave","lat":40.7465,"lng":-73.99733,"capacity":33},{"name":"Broadway & W 38 St","lat":40.75297,"lng":-73.98735,"capacity":68},{"name":"Fort Washington Ave & W 173 St","lat":40.84522,"lng":-73.94049,"capacity":24},{"name":"9 St & 44 Rd","lat":40.74966,"lng":-73.9521,"capacity":34},{"name":"National St & 45 Ave","lat":40.74582,"lng":-73.86433,"capacity":22},{"name":"112 St & Northern Blvd","lat":40.75788,"lng":-73.85763,"capacity":20},{"name":"Convent Ave & W 135 St","lat":40.81822,"lng":-73.95099,"capacity":30},{"name":"Montgomery St & Franklin Ave","lat":40.66644,"lng":-73.96056,"capacity":19},{"name":"Steinway St & 19 Ave","lat":40.77809,"lng":-73.89956,"capacity":21},{"name":"Loring Pl North & W 183 St","lat":40.86042,"lng":-73.90934,"capacity":20},{"name":"37 St & 24 Ave","lat":40.77015,"lng":-73.91209,"capacity":19},{"name":"Central Ave & Himrod St","lat":40.69676,"lng":-73.92302,"capacity":25},{"name":"6 St & 7 Ave","lat":40.66866,"lng":-73.97988,"capacity":21},{"name":"Broadway & W 138 St","lat":40.82182,"lng":-73.95353,"capacity":27},{"name":"Ditmas Ave & McDonald Ave","lat":40.63548,"lng":-73.97825,"capacity":23},{"name":"E 24 St & Park Ave S","lat":40.74096,"lng":-73.98602,"capacity":79},{"name":"Richardson St & N Henry St","lat":40.71908,"lng":-73.94224,"capacity":25},{"name":"Sterling Pl & New York Ave","lat":40.67234,"lng":-73.94763,"capacity":25},{"name":"98 St & 41 Ave","lat":40.74773,"lng":-73.86649,"capacity":22},{"name":"Cherry St","lat":40.7122,"lng":-73.97948,"capacity":36},{"name":"W 37 St & 10 Ave","lat":40.7566,"lng":-73.9979,"capacity":39},{"name":"83 St & Narrows Ave","lat":40.62757,"lng":-74.03838,"capacity":12},{"name":"Mount Eden Pkwy & Eastburn Ave","lat":40.84268,"lng":-73.90854,"capacity":19},{"name":"Barry St & Tiffany St","lat":40.81613,"lng":-73.89156,"capacity":19},{"name":"Eastern Pkwy & Franklin Ave (NE Corner)","lat":40.67078,"lng":-73.95768,"capacity":42},{"name":"Melrose Ave & E 150 St","lat":40.81683,"lng":-73.91734,"capacity":31},{"name":"Franklin Ave & Myrtle Ave","lat":40.69455,"lng":-73.95801,"capacity":27},{"name":"Broadway & Moylan Pl","lat":40.81433,"lng":-73.95903,"capacity":41},{"name":"Morton St & Greenwich St","lat":40.73114,"lng":-74.00815,"capacity":56},{"name":"Lee Ave & Taylor St","lat":40.70673,"lng":-73.96124,"capacity":25},{"name":"W 47 St & 6 Ave","lat":40.75815,"lng":-73.98196,"capacity":68},{"name":"10 Ave & W 34 St","lat":40.75477,"lng":-73.99915,"capacity":33},{"name":"3 St & Hoyt St","lat":40.67773,"lng":-73.99364,"capacity":53},{"name":"31 St & Hoyt Ave N","lat":40.77115,"lng":-73.91701,"capacity":35},{"name":"24 Ave & 92 St","lat":40.76589,"lng":-73.87789,"capacity":20},{"name":"19 St & 24 Ave","lat":40.77746,"lng":-73.92254,"capacity":23},{"name":"Parkside Ave & Flatbush Ave","lat":40.65563,"lng":-73.95968,"capacity":25},{"name":"Rivington St & Ridge St","lat":40.7185,"lng":-73.9833,"capacity":61},{"name":"Lewis Ave & Decatur St","lat":40.68146,"lng":-73.9349,"capacity":19},{"name":"Bedford Park Blvd & Paul Ave","lat":40.87444,"lng":-73.89186,"capacity":24},{"name":"Dean St & Rockaway Ave","lat":40.67486,"lng":-73.91123,"capacity":21},{"name":"W 34 St & Hudson Blvd E","lat":40.75517,"lng":-74.0006,"capacity":57},{"name":"E 138 St & 5 Ave","lat":40.81449,"lng":-73.93615,"capacity":22},{"name":"96 St & Northern Blvd","lat":40.75712,"lng":-73.8722,"capacity":20},{"name":"Walton Ave & E 168 St","lat":40.83649,"lng":-73.91832,"capacity":20},{"name":"Pinehurst Ave & W 187 St","lat":40.85533,"lng":-73.93788,"capacity":20},{"name":"Linden St & Knickerbocker Ave","lat":40.69714,"lng":-73.91566,"capacity":18},{"name":"E 138 St & Park Ave","lat":40.81264,"lng":-73.92925,"capacity":21},{"name":"President St & 4 Ave","lat":40.67666,"lng":-73.98328,"capacity":31},{"name":"41 Ave & 67 St","lat":40.74446,"lng":-73.89764,"capacity":20},{"name":"E 51 St & Linden Blvd","lat":40.65399,"lng":-73.92967,"capacity":21},{"name":"Broadway & W 165 St","lat":40.83914,"lng":-73.94141,"capacity":24},{"name":"Central Ave & Starr St","lat":40.7,"lng":-73.92834,"capacity":23},{"name":"E 184 St & 3 Ave","lat":40.85472,"lng":-73.89022,"capacity":19},{"name":"E 106 St & Madison Ave","lat":40.79343,"lng":-73.94945,"capacity":25},{"name":"Bailey Ave & Sedgwick Ave","lat":40.86571,"lng":-73.90857,"capacity":20},{"name":"Elmhurst Ave & Forley St","lat":40.74615,"lng":-73.87763,"capacity":21},{"name":"51 Ave & 61 St","lat":40.73568,"lng":-73.90387,"capacity":19},{"name":"8 Ave & W 49 St","lat":40.76171,"lng":-73.98655,"capacity":65},{"name":"W 44 St & 9 Ave","lat":40.75963,"lng":-73.99155,"capacity":31},{"name":"Church Ave & Story St","lat":40.64203,"lng":-73.98107,"capacity":23},{"name":"63 St & Borden Ave","lat":40.72655,"lng":-73.90321,"capacity":21},{"name":"E 31 St & 3 Ave","lat":40.74394,"lng":-73.97966,"capacity":65},{"name":"Pleasant Ave & E 120 St","lat":40.79748,"lng":-73.93118,"capacity":21},{"name":"60 Ave & Fresh Pond Rd","lat":40.71693,"lng":-73.90198,"capacity":19},{"name":"Front St & Washington St","lat":40.70255,"lng":-73.9894,"capacity":57},{"name":"8 St & Astoria Blvd","lat":40.7726,"lng":-73.93266,"capacity":19},{"name":"Atlantic Ave & Furman St","lat":40.69165,"lng":-73.99998,"capacity":55},{"name":"17 St & 5 Ave","lat":40.66349,"lng":-73.99101,"capacity":25},{"name":"Ogden Ave & W 165 St","lat":40.83446,"lng":-73.92838,"capacity":19},{"name":"E 16 St & Cortelyou Rd","lat":40.64173,"lng":-73.96364,"capacity":26},{"name":"Division Ave & Marcy Ave","lat":40.70709,"lng":-73.95797,"capacity":33},{"name":"W 54 St & 9 Ave","lat":40.76604,"lng":-73.98737,"capacity":44},{"name":"Menahan St & Seneca Ave","lat":40.70461,"lng":-73.91054,"capacity":16},{"name":"Lexington Ave & E 127 St","lat":40.80573,"lng":-73.93632,"capacity":33},{"name":"Carroll St & Utica Ave","lat":40.66619,"lng":-73.93162,"capacity":20},{"name":"Amsterdam Ave & W 156 St","lat":40.83208,"lng":-73.94239,"capacity":27},{"name":"Fulton St & Saratoga Ave","lat":40.67853,"lng":-73.91642,"capacity":19},{"name":"Southern Blvd & E 180 St","lat":40.84605,"lng":-73.88426,"capacity":19},{"name":"Myrtle Ave & 65 St","lat":40.70117,"lng":-73.8904,"capacity":19},{"name":"Coffey St & Conover St","lat":40.67724,"lng":-74.01566,"capacity":32},{"name":"E 17 St & Beverley Rd","lat":40.64466,"lng":-73.96322,"capacity":23},{"name":"E 15 St & 3 Ave","lat":40.73423,"lng":-73.98692,"capacity":78},{"name":"W Tremont Ave & Montgomery Ave","lat":40.85179,"lng":-73.91642,"capacity":21},{"name":"Bushwick Ave & Stagg St","lat":40.7099,"lng":-73.94008,"capacity":21},{"name":"Brooklyn Ave & Beverley Rd","lat":40.64575,"lng":-73.94331,"capacity":21},{"name":"Queens Blvd N & 78 Ave","lat":40.71532,"lng":-73.83226,"capacity":24},{"name":"St Nicholas Ave & W 137 St","lat":40.81848,"lng":-73.94757,"capacity":21},{"name":"31 Ave & 57 St","lat":40.75736,"lng":-73.90473,"capacity":23},{"name":"Ave D & E 12 St","lat":40.72581,"lng":-73.97422,"capacity":41},{"name":"Hanson Pl & Ashland Pl","lat":40.68507,"lng":-73.97791,"capacity":39},{"name":"Lefferts Ave & Albany Ave","lat":40.66288,"lng":-73.94019,"capacity":24},{"name":"65 St & 2 Ave","lat":40.64049,"lng":-74.02564,"capacity":21},{"name":"44 St & Greenpoint Ave","lat":40.74112,"lng":-73.92104,"capacity":27},{"name":"E 88 St & Park Ave","lat":40.78141,"lng":-73.95596,"capacity":38},{"name":"South St & Gouverneur Ln","lat":40.70355,"lng":-74.0067,"capacity":43},{"name":"St Nicholas Ave & Manhattan Ave","lat":40.80973,"lng":-73.95315,"capacity":31},{"name":"89 St & 3 Ave","lat":40.62137,"lng":-74.03209,"capacity":20},{"name":"Bergen St & Saratoga Ave","lat":40.67423,"lng":-73.91656,"capacity":20},{"name":"77 St & 31 Ave","lat":40.75886,"lng":-73.89081,"capacity":20},{"name":"Nassau Ave & Newell St","lat":40.72481,"lng":-73.94753,"capacity":51},{"name":"Central Ave & Flushing Ave","lat":40.70283,"lng":-73.9333,"capacity":21},{"name":"Dwight St & Dikeman St","lat":40.67488,"lng":-74.01048,"capacity":21},{"name":"W 90 St & Amsterdam Ave","lat":40.79018,"lng":-73.97289,"capacity":34},{"name":"Macombs Rd & W 175 St","lat":40.84818,"lng":-73.91608,"capacity":20},{"name":"Railroad Ave & Kay Ave","lat":40.70515,"lng":-73.97078,"capacity":30},{"name":"4 Ave & 85 St","lat":40.62354,"lng":-74.02817,"capacity":23},{"name":"31 St & Thomson Ave","lat":40.7447,"lng":-73.9354,"capacity":47},{"name":"E 171 St & 3 Ave","lat":40.83712,"lng":-73.90218,"capacity":24},{"name":"Queens Blvd N & 75 Ave","lat":40.71894,"lng":-73.8377,"capacity":25},{"name":"49 Ave & 108 St","lat":40.74535,"lng":-73.8558,"capacity":22},{"name":"Washington Pl & Greene St","lat":40.72981,"lng":-73.99546,"capacity":46},{"name":"Bridge St & Front St","lat":40.70297,"lng":-73.98469,"capacity":47},{"name":"E 147 St & Bergen Ave","lat":40.81467,"lng":-73.91839,"capacity":25},{"name":"Washington Ave & Empire Blvd","lat":40.66314,"lng":-73.96057,"capacity":27},{"name":"E Gun Hill Rd & Tryon Ave","lat":40.8802,"lng":-73.87697,"capacity":21},{"name":"E 171 St & Webster Ave","lat":40.83838,"lng":-73.90584,"capacity":20},{"name":"W 67 St & Broadway","lat":40.77493,"lng":-73.98267,"capacity":31},{"name":"Grand Concourse & E 161 St","lat":40.82713,"lng":-73.92274,"capacity":27},{"name":"Riverside Dr & W 72 St","lat":40.78058,"lng":-73.98562,"capacity":41},{"name":"Broadway & W 192 St","lat":40.85799,"lng":-73.93217,"capacity":23},{"name":"Kent Ave & Division Ave","lat":40.70656,"lng":-73.96832,"capacity":44},{"name":"Duane St & Hudson St","lat":40.71703,"lng":-74.00925,"capacity":44},{"name":"David Sheridan Plaza & Broadway","lat":40.90501,"lng":-73.89663,"capacity":16},{"name":"Warren St & W Broadway","lat":40.71474,"lng":-74.00911,"capacity":71},{"name":"W 160 St & Riverside Dr","lat":40.83719,"lng":-73.9466,"capacity":27},{"name":"65 Pl & 53 Ave","lat":40.73145,"lng":-73.90022,"capacity":19},{"name":"MacDougal St & Washington Sq","lat":40.73226,"lng":-73.99852,"capacity":33},{"name":"W 50 St & 9 Ave","lat":40.7636,"lng":-73.98918,"capacity":30},{"name":"Myrtle Ave & Fleet Pl","lat":40.69353,"lng":-73.98191,"capacity":47},{"name":"14 St & 7 Ave","lat":40.66378,"lng":-73.98397,"capacity":24},{"name":"Union St & 4 Ave","lat":40.67727,"lng":-73.98282,"capacity":28},{"name":"E 45 St & 3 Ave","lat":40.75255,"lng":-73.97283,"capacity":34},{"name":"Graham Ave & Withers St","lat":40.71698,"lng":-73.94486,"capacity":18},{"name":"3 Ave & E Tremont Ave","lat":40.84649,"lng":-73.89616,"capacity":27},{"name":"E 95 St & 3 Ave","lat":40.7849,"lng":-73.9505,"capacity":31},{"name":"Clinton St & Grand St","lat":40.7156,"lng":-73.98703,"capacity":54},{"name":"8 Ave & W 33 St","lat":40.75157,"lng":-73.99377,"capacity":96},{"name":"3 Ave & E 62 St","lat":40.76313,"lng":-73.96527,"capacity":51},{"name":"Carlton Ave & Greene Ave","lat":40.68596,"lng":-73.97147,"capacity":25},{"name":"E 14 St & Ave B","lat":40.72939,"lng":-73.97772,"capacity":43},{"name":"Macon St & Nostrand Ave","lat":40.68098,"lng":-73.95005,"capacity":24},{"name":"Morris Ave & E 163 St","lat":40.82723,"lng":-73.91766,"capacity":21},{"name":"3 St & Prospect Park West","lat":40.66813,"lng":-73.97364,"capacity":31},{"name":"55 Dr & Maurice Ave","lat":40.7261,"lng":-73.90917,"capacity":19},{"name":"3 Ave & E 169 St","lat":40.83268,"lng":-73.90516,"capacity":21},{"name":"Church Ave & Nostrand Ave","lat":40.65074,"lng":-73.94986,"capacity":30},{"name":"Jackson Ave & 50 Ave","lat":40.74234,"lng":-73.95312,"capacity":32},{"name":"Decatur Ave & Bedford Park Blvd","lat":40.86813,"lng":-73.88412,"capacity":20},{"name":"W 15 St & 6 Ave","lat":40.73805,"lng":-73.99643,"capacity":75},{"name":"64 St & 53 Dr","lat":40.72897,"lng":-73.90115,"capacity":19},{"name":"Cedar Ave & W Fordham Rd","lat":40.86156,"lng":-73.91219,"capacity":24},{"name":"34 St & 4 Ave","lat":40.65528,"lng":-74.0031,"capacity":23},{"name":"Central Park W & W 91 St","lat":40.78866,"lng":-73.9668,"capacity":48},{"name":"Huron St & Franklin St","lat":40.73266,"lng":-73.95826,"capacity":35},{"name":"Greenpoint Ave & West St","lat":40.7298,"lng":-73.9591,"capacity":35},{"name":"Rutland Rd & Brooklyn Ave","lat":40.65969,"lng":-73.94517,"capacity":25},{"name":"Carroll St & Bond St","lat":40.67861,"lng":-73.99037,"capacity":25},{"name":"64 Ave & 108 St","lat":40.73305,"lng":-73.84942,"capacity":17},{"name":"Morgan Ave & Maspeth Ave","lat":40.71666,"lng":-73.93637,"capacity":25},{"name":"Ovington Ave & 3 Ave","lat":40.63487,"lng":-74.02625,"capacity":16},{"name":"W 18 St & 6 Ave","lat":40.73971,"lng":-73.99456,"capacity":69},{"name":"Berkeley Pl & 6 Ave","lat":40.67653,"lng":-73.97847,"capacity":41},{"name":"Shore Rd & 97 St","lat":40.61529,"lng":-74.03779,"capacity":12},{"name":"E 11 St & 1 Ave","lat":40.72954,"lng":-73.98427,"capacity":61},{"name":"South Railroad Ave & Broadway","lat":40.741,"lng":-73.88027,"capacity":25},{"name":"7 Ave & W 55 St","lat":40.76413,"lng":-73.98097,"capacity":67},{"name":"48 St & 37 Ave","lat":40.75156,"lng":-73.91503,"capacity":29},{"name":"Market St & Henry St","lat":40.71311,"lng":-73.99446,"capacity":42},{"name":"Claflin Ave & Reservoir Ave","lat":40.87398,"lng":-73.89943,"capacity":19},{"name":"University Ave & Morton Pl","lat":40.85118,"lng":-73.91465,"capacity":21},{"name":"E 3 St & Cortelyou Rd","lat":40.63828,"lng":-73.9765,"capacity":14},{"name":"E 34 St & Linden Blvd","lat":40.65302,"lng":-73.94599,"capacity":24},{"name":"33 St & 47 Ave","lat":40.74283,"lng":-73.9321,"capacity":24},{"name":"34 Ave & 45 St","lat":40.7548,"lng":-73.91701,"capacity":23},{"name":"W 45 St & 8 Ave","lat":40.75929,"lng":-73.9886,"capacity":65},{"name":"W 116 St & Broadway","lat":40.8082,"lng":-73.9641,"capacity":43},{"name":"New York Ave & Montgomery St","lat":40.66509,"lng":-73.94824,"capacity":20},{"name":"E 8 St & Beverley Rd","lat":40.64369,"lng":-73.97163,"capacity":12},{"name":"E 157 St & River Ave","lat":40.82574,"lng":-73.92731,"capacity":19},{"name":"15 Ave & 37 St","lat":40.63899,"lng":-73.98074,"capacity":13},{"name":"Schenectady Ave & Pacific St","lat":40.67686,"lng":-73.93327,"capacity":21},{"name":"8 Ave & W 31 St","lat":40.75059,"lng":-73.99468,"capacity":97},{"name":"Beverley Rd & Flatbush Ave","lat":40.64499,"lng":-73.95818,"capacity":30},{"name":"Broadway & W 25 St","lat":40.74287,"lng":-73.98919,"capacity":109},{"name":"60 Pl & Linden St","lat":40.70886,"lng":-73.90182,"capacity":21},{"name":"49 St & 25 Ave","lat":40.7645,"lng":-73.90463,"capacity":25},{"name":"Central Park W & W 68 St","lat":40.77341,"lng":-73.97783,"capacity":43},{"name":"Macon St & Patchen Ave","lat":40.68374,"lng":-73.9261,"capacity":19},{"name":"Wyckoff Ave & Jefferson St","lat":40.70717,"lng":-73.92371,"capacity":27},{"name":"Longfellow Ave & E 165 St","lat":40.82532,"lng":-73.88773,"capacity":21},{"name":"71 St & 37 Ave","lat":40.7488,"lng":-73.89451,"capacity":23},{"name":"Devoe St & Lorimer St","lat":40.71335,"lng":-73.9491,"capacity":19},{"name":"Picnic Point","lat":40.68513,"lng":-74.02535,"capacity":45},{"name":"48 St & 2 Ave","lat":40.65018,"lng":-74.01561,"capacity":19},{"name":"Audubon Ave & W 192 St","lat":40.85589,"lng":-73.92708,"capacity":21},{"name":"E 170 St & Clay Ave","lat":40.83721,"lng":-73.90834,"capacity":24},{"name":"E 1 St & Bowery","lat":40.72486,"lng":-73.99213,"capacity":44},{"name":"Schenectady Ave & Cortelyou Rd","lat":40.64535,"lng":-73.93268,"capacity":22},{"name":"23 Rd & 31 St","lat":40.77337,"lng":-73.91383,"capacity":21},{"name":"Andrew Ave N & Hall of Fame Tce","lat":40.85834,"lng":-73.91008,"capacity":19},{"name":"Shore Rd & Oliver St","lat":40.61919,"lng":-74.0402,"capacity":16},{"name":"Wakeman Pl & Ridge Blvd","lat":40.63942,"lng":-74.02682,"capacity":19},{"name":"99 St & Astoria Blvd","lat":40.76196,"lng":-73.87042,"capacity":23},{"name":"University Pl & E 14 St","lat":40.73481,"lng":-73.99208,"capacity":61},{"name":"Howard St & Lafayette St","lat":40.71911,"lng":-73.99973,"capacity":39},{"name":"Riverdale Ave & W 254 St","lat":40.90207,"lng":-73.90578,"capacity":12},{"name":"Eldert St & Bushwick Ave","lat":40.68652,"lng":-73.91321,"capacity":22},{"name":"Faile St & Garrison Ave","lat":40.82058,"lng":-73.88827,"capacity":19},{"name":"E 89 St & 3 Ave","lat":40.78063,"lng":-73.95217,"capacity":39},{"name":"University Ave & Brandt Pl","lat":40.84835,"lng":-73.91839,"capacity":23},{"name":"Amsterdam Ave & W 136 St","lat":40.81975,"lng":-73.95182,"capacity":21},{"name":"Myrtle Ave & Marcy Ave","lat":40.6954,"lng":-73.94955,"capacity":23},{"name":"114 St & 39 Ave","lat":40.7532,"lng":-73.853,"capacity":30},{"name":"Irving Ave & Jefferson St","lat":40.70538,"lng":-73.92535,"capacity":19},{"name":"Hudson St & Reade St","lat":40.71625,"lng":-74.00911,"capacity":55},{"name":"Amsterdam Ave & W 125 St","lat":40.81336,"lng":-73.95646,"capacity":39},{"name":"57 St & 4 Ave","lat":40.64262,"lng":-74.01687,"capacity":22},{"name":"10 St & 2 Ave","lat":40.67191,"lng":-73.99361,"capacity":19},{"name":"E Mosholu Pkwy & E 204 St","lat":40.87407,"lng":-73.88337,"capacity":19},{"name":"Lexington Ave & E 29 St","lat":40.74312,"lng":-73.98215,"capacity":50},{"name":"Lenox Ave & W 144 St","lat":40.81978,"lng":-73.93652,"capacity":22},{"name":"11 St & 44 Rd","lat":40.74921,"lng":-73.94937,"capacity":27},{"name":"Tiebout Ave & E Fordham Rd","lat":40.86192,"lng":-73.89483,"capacity":31},{"name":"Steuben Ave & E 210 St","lat":40.87985,"lng":-73.88083,"capacity":20},{"name":"Lorimer St & Broadway","lat":40.70412,"lng":-73.94819,"capacity":29},{"name":"E 27 St & Park Ave S","lat":40.74275,"lng":-73.98472,"capacity":69},{"name":"Gerard Ave & McClellan St","lat":40.83391,"lng":-73.92112,"capacity":30},{"name":"Crescent Ave & Belmont Ave","lat":40.85391,"lng":-73.8866,"capacity":24},{"name":"Andrews Ave S & W 179 St","lat":40.85516,"lng":-73.91278,"capacity":20},{"name":"Boston Rd & E 167 St","lat":40.8282,"lng":-73.90372,"capacity":21},{"name":"Queens Blvd & 56 St","lat":40.74193,"lng":-73.90913,"capacity":20},{"name":"Seaman Ave & Isham St","lat":40.8699,"lng":-73.92076,"capacity":23},{"name":"Dock St & Front St","lat":40.70271,"lng":-73.99253,"capacity":29},{"name":"E 176 St & Clinton Ave","lat":40.84311,"lng":-73.89149,"capacity":20},{"name":"Tompkins Ave & Hopkins St","lat":40.69958,"lng":-73.94708,"capacity":19},{"name":"Lenox Ave & W 133 St","lat":40.81296,"lng":-73.94188,"capacity":27},{"name":"Eastern Pkwy & Franklin Ave (SW Corner)","lat":40.67053,"lng":-73.95822,"capacity":30},{"name":"St Nicholas Ave & W 150 St","lat":40.82721,"lng":-73.94272,"capacity":26},{"name":"Freeman St & Southern Blvd","lat":40.83005,"lng":-73.8921,"capacity":23},{"name":"Ave D & E 8 St","lat":40.72368,"lng":-73.97575,"capacity":30},{"name":"Verveelen Pl & Broadway","lat":40.87826,"lng":-73.90508,"capacity":23},{"name":"E 141 St & St Ann's Ave","lat":40.80863,"lng":-73.91612,"capacity":19},{"name":"Bedford Ave & Beverley Rd","lat":40.64491,"lng":-73.95487,"capacity":24},{"name":"103 St & Martense Ave","lat":40.74046,"lng":-73.8565,"capacity":19},{"name":"Carroll St & Columbia St","lat":40.68305,"lng":-74.00349,"capacity":39},{"name":"Sterling Pl & Classon Ave","lat":40.67394,"lng":-73.96026,"capacity":29},{"name":"43 Ave & 40 St","lat":40.74562,"lng":-73.92402,"capacity":21},{"name":"Ditmars Blvd & 43 St","lat":40.7712,"lng":-73.90386,"capacity":27},{"name":"W 233 St & Albany Crescent","lat":40.87979,"lng":-73.90164,"capacity":20},{"name":"W 25 St & 9 Ave","lat":40.74783,"lng":-74.00057,"capacity":68},{"name":"91 St & 23 Ave","lat":40.76768,"lng":-73.87899,"capacity":22},{"name":"Putnam Ave & Throop Ave","lat":40.68515,"lng":-73.94111,"capacity":21},{"name":"Menahan St & Central Ave","lat":40.69543,"lng":-73.9196,"capacity":25},{"name":"43 Ave & 42 St","lat":40.74535,"lng":-73.92194,"capacity":24},{"name":"E 94 St & Madison Ave","lat":40.78585,"lng":-73.95482,"capacity":43},{"name":"Madison St & Clinton St","lat":40.71269,"lng":-73.98776,"capacity":39},{"name":"Waterloo Pl & Crotona Park East","lat":40.83919,"lng":-73.88859,"capacity":19},{"name":"Scholes St & Lorimer St","lat":40.70832,"lng":-73.94873,"capacity":27},{"name":"65 St & Roosevelt Ave","lat":40.74589,"lng":-73.89915,"capacity":30},{"name":"Dwight St & Van Dyke St","lat":40.67364,"lng":-74.01196,"capacity":23},{"name":"William St & Pine St","lat":40.70718,"lng":-74.00887,"capacity":57},{"name":"E 49 St & Church Ave","lat":40.65182,"lng":-73.93135,"capacity":25},{"name":"Riverside Dr & W 145 St","lat":40.82731,"lng":-73.95199,"capacity":35},{"name":"Stuyvesant Ave & Hart St","lat":40.69465,"lng":-73.9343,"capacity":27},{"name":"W 56 St & 8 Ave","lat":40.76596,"lng":-73.98314,"capacity":50},{"name":"98 St & 25 Ave","lat":40.76454,"lng":-73.87171,"capacity":20},{"name":"51 Ave & Van Loon St","lat":40.73832,"lng":-73.87913,"capacity":24},{"name":"2 Ave & E 125 St","lat":40.80255,"lng":-73.93351,"capacity":30},{"name":"E 53 St & Lexington Ave","lat":40.75828,"lng":-73.97069,"capacity":57},{"name":"Vernon Blvd & 31 Ave","lat":40.76925,"lng":-73.93545,"capacity":23},{"name":"Jackson Ave & 46 Rd","lat":40.74525,"lng":-73.94733,"capacity":27},{"name":"Windsor Pl & 8 Ave","lat":40.66091,"lng":-73.98307,"capacity":20},{"name":"30 Ave & 80 St","lat":40.76109,"lng":-73.88838,"capacity":19},{"name":"E 75 St & 3 Ave","lat":40.77113,"lng":-73.95772,"capacity":41},{"name":"Crotona Park East & E 173 St","lat":40.83704,"lng":-73.89041,"capacity":19},{"name":"W 44 St & 5 Ave","lat":40.755,"lng":-73.98014,"capacity":68},{"name":"McKibbin St & Bogart St","lat":40.70624,"lng":-73.93387,"capacity":30},{"name":"94 St & 57 Ave","lat":40.73628,"lng":-73.86752,"capacity":25},{"name":"E 8 St & Caton Ave","lat":40.64806,"lng":-73.97243,"capacity":30},{"name":"32 Ave & 77 St","lat":40.75727,"lng":-73.89024,"capacity":23},{"name":"40 St & 3 Ave","lat":40.6535,"lng":-74.00902,"capacity":31},{"name":"39 Ave & 45 St","lat":40.74948,"lng":-73.91826,"capacity":19},{"name":"Macon St & Howard Ave","lat":40.68452,"lng":-73.92011,"capacity":20},{"name":"E 181 St & Bathgate Ave","lat":40.85198,"lng":-73.89438,"capacity":21},{"name":"30 St & 48 Ave","lat":40.74133,"lng":-73.938,"capacity":29},{"name":"Sands St & Jay St","lat":40.70012,"lng":-73.9862,"capacity":48},{"name":"Catherine St & Monroe St","lat":40.71117,"lng":-73.99683,"capacity":35},{"name":"Van Cortlandt Park S & Gouverneur Ave","lat":40.88492,"lng":-73.89084,"capacity":25},{"name":"60 St & 37 Ave","lat":40.74952,"lng":-73.90265,"capacity":19},{"name":"Albany Ave & Carroll St","lat":40.6667,"lng":-73.93972,"capacity":19},{"name":"74 St & Woodside Ave","lat":40.74325,"lng":-73.89079,"capacity":19},{"name":"5 St & 51 Ave","lat":40.74237,"lng":-73.9566,"capacity":21},{"name":"Kingston Ave & Montgomery St","lat":40.66481,"lng":-73.94269,"capacity":19},{"name":"Adam Clayton Powell Blvd & W 132 St","lat":40.81354,"lng":-73.94521,"capacity":23},{"name":"McDonald Ave & Vanderbilt St","lat":40.65165,"lng":-73.98123,"capacity":21},{"name":"N 5 St & Northside Piers","lat":40.71988,"lng":-73.96386,"capacity":45},{"name":"W 10 St & Washington St","lat":40.73342,"lng":-74.00851,"capacity":68},{"name":"Leonard St & Church St","lat":40.71757,"lng":-74.00555,"capacity":46},{"name":"Franklin Ave & Quincy St","lat":40.68636,"lng":-73.95678,"capacity":23},{"name":"Seigel St & Humboldt St","lat":40.70461,"lng":-73.94086,"capacity":42},{"name":"E 20 St & FDR Dr","lat":40.73321,"lng":-73.97568,"capacity":75},{"name":"Washington Pl & 6 Ave","lat":40.73224,"lng":-74.00026,"capacity":76},{"name":"11 Ave & Prospect Ave","lat":40.65629,"lng":-73.97733,"capacity":20},{"name":"St Marks Ave & Ralph Ave","lat":40.67372,"lng":-73.92199,"capacity":19},{"name":"Southern Blvd & E 142 St","lat":40.80735,"lng":-73.9081,"capacity":23},{"name":"Knickerbocker Ave & Hancock St","lat":40.69385,"lng":-73.90974,"capacity":22},{"name":"39 Ave & 99 St","lat":40.74962,"lng":-73.86677,"capacity":21},{"name":"Vyse Ave & E 181 St","lat":40.84463,"lng":-73.87988,"capacity":20},{"name":"Eliot Ave & 60 Ln","lat":40.71391,"lng":-73.90299,"capacity":22},{"name":"Spring St & Hudson St","lat":40.72584,"lng":-74.00765,"capacity":63},{"name":"58 St & Pier 4","lat":40.64648,"lng":-74.02608,"capacity":31},{"name":"Albemarle Rd & E 21 St","lat":40.64741,"lng":-73.95933,"capacity":21},{"name":"George St & Wilson Ave","lat":40.703,"lng":-73.92997,"capacity":19},{"name":"31 Ave & 34 St","lat":40.76315,"lng":-73.92083,"capacity":23},{"name":"37 Ave & 106 St","lat":40.75397,"lng":-73.862,"capacity":19},{"name":"28 St & 36 Ave","lat":40.75719,"lng":-73.93272,"capacity":29},{"name":"W 84 St & Columbus Ave","lat":40.785,"lng":-73.97283,"capacity":35},{"name":"Eastern Pkwy & Kingston Ave","lat":40.66959,"lng":-73.94237,"capacity":30},{"name":"3 Ave & 17 St","lat":40.66617,"lng":-73.99555,"capacity":21},{"name":"E Burnside Ave & Ryer Ave","lat":40.85054,"lng":-73.90132,"capacity":21},{"name":"E 115 St & Lexington Ave","lat":40.79791,"lng":-73.9423,"capacity":25},{"name":"Riverside Blvd & W 67 St","lat":40.77751,"lng":-73.98889,"capacity":79},{"name":"Fort Hamilton Pkwy & 92 St","lat":40.61717,"lng":-74.02744,"capacity":16},{"name":"Halsey St & Ralph Ave","lat":40.68494,"lng":-73.92299,"capacity":20},{"name":"Wyckoff St & 3 Ave","lat":40.68275,"lng":-73.98259,"capacity":22},{"name":"Goulden Ave & W 197 St","lat":40.87156,"lng":-73.89714,"capacity":20},{"name":"Amity St & Court St","lat":40.68842,"lng":-73.99314,"capacity":32},{"name":"Garrison Ave & Manida St","lat":40.81874,"lng":-73.89025,"capacity":30},{"name":"St Nicholas Terrace & Convent Ave","lat":40.82129,"lng":-73.94787,"capacity":24},{"name":"Yellowstone Blvd & 67 Rd","lat":40.72782,"lng":-73.84924,"capacity":15},{"name":"Central Park S & 6 Ave","lat":40.76591,"lng":-73.97634,"capacity":73},{"name":"W 11 St & 6 Ave","lat":40.73532,"lng":-73.998,"capacity":79},{"name":"Ithaca St & Baxter Ave","lat":40.74638,"lng":-73.88322,"capacity":25},{"name":"Marcy Ave & Rutledge St","lat":40.70368,"lng":-73.95427,"capacity":19},{"name":"39 Dr & 52 St","lat":40.74732,"lng":-73.91197,"capacity":19},{"name":"Central Park W & W 76 St","lat":40.77897,"lng":-73.97375,"capacity":39},{"name":"58 St & 56 Dr","lat":40.72419,"lng":-73.91244,"capacity":19},{"name":"Broadway & E 21 St","lat":40.73989,"lng":-73.98959,"capacity":54},{"name":"Hunts Point Ave & Bryant Ave","lat":40.81399,"lng":-73.8855,"capacity":21},{"name":"7 Ave & 41 St","lat":40.64738,"lng":-74.00091,"capacity":25},{"name":"Fresh Pond Rd & 69 Ave","lat":40.70311,"lng":-73.89547,"capacity":28},{"name":"Clarkson Ave & Utica Ave","lat":40.65666,"lng":-73.93109,"capacity":20},{"name":"97 St & 57 Ave","lat":40.73727,"lng":-73.86415,"capacity":20},{"name":"Wadsworth Ave & W 175 St","lat":40.84605,"lng":-73.93765,"capacity":24},{"name":"Aqueduct Ave & North St","lat":40.86048,"lng":-73.90572,"capacity":20},{"name":"64 St & Woodbine St","lat":40.70809,"lng":-73.89549,"capacity":19},{"name":"Plaza St East & Flatbush Ave","lat":40.67313,"lng":-73.96911,"capacity":63},{"name":"5 Ave & 44 St","lat":40.64865,"lng":-74.00646,"capacity":24},{"name":"Gillmore St & 27 Ave","lat":40.76399,"lng":-73.8669,"capacity":18},{"name":"Boston Rd & E 178 St","lat":40.84096,"lng":-73.87923,"capacity":25},{"name":"Lafayette St & Grand St","lat":40.72028,"lng":-73.99879,"capacity":78},{"name":"University Pl & E 8 St","lat":40.73144,"lng":-73.9949,"capacity":79},{"name":"Park Ave & E 40 St","lat":40.75112,"lng":-73.97851,"capacity":72},{"name":"Central Park W & W 85 St","lat":40.78476,"lng":-73.96986,"capacity":38},{"name":"Keegan Rd & 2 Ave","lat":40.64243,"lng":-74.02554,"capacity":35},{"name":"W 20 St & 10 Ave","lat":40.74569,"lng":-74.00514,"capacity":49},{"name":"Skillman Ave & 54 St","lat":40.7455,"lng":-73.90989,"capacity":19},{"name":"Greenwood Ave & E 4 St","lat":40.65074,"lng":-73.97774,"capacity":21},{"name":"Grand Concourse & E Mount Eden Ave","lat":40.84301,"lng":-73.91172,"capacity":19},{"name":"E 16 St & 5 Ave","lat":40.73726,"lng":-73.99239,"capacity":65},{"name":"Crown St & Troy Ave","lat":40.66559,"lng":-73.93712,"capacity":20},{"name":"Jay St & Tech Pl","lat":40.69507,"lng":-73.98717,"capacity":52},{"name":"Park Ave & Marcy Ave","lat":40.69758,"lng":-73.94888,"capacity":23},{"name":"W Tremont Ave & Grand Ave","lat":40.85004,"lng":-73.91278,"capacity":21},{"name":"Prospect Park W & 20 St","lat":40.65663,"lng":-73.98386,"capacity":25},{"name":"Palmetto St & Traffic Ave","lat":40.70929,"lng":-73.89441,"capacity":21},{"name":"Stratford Rd & Beverley Rd","lat":40.64378,"lng":-73.96867,"capacity":19},{"name":"3 Ave & E 72 St","lat":40.76994,"lng":-73.96061,"capacity":35},{"name":"W 49 St & 8 Ave","lat":40.76227,"lng":-73.98788,"capacity":67},{"name":"11 St & 43 Ave","lat":40.75177,"lng":-73.94821,"capacity":28},{"name":"Somers St & Rockaway Ave","lat":40.67872,"lng":-73.91105,"capacity":20},{"name":"E 58 St & 1 Ave (NW Corner)","lat":40.75912,"lng":-73.96266,"capacity":50},{"name":"Seaman Ave & Beak St","lat":40.86751,"lng":-73.92636,"capacity":21},{"name":"99 St & 35 Ave","lat":40.75404,"lng":-73.86887,"capacity":23},{"name":"Arion Pl & Broadway","lat":40.69789,"lng":-73.93664,"capacity":20},{"name":"Chauncey St & Malcolm X Blvd","lat":40.68044,"lng":-73.92842,"capacity":24},{"name":"Walnut Ave & E 136 St","lat":40.80166,"lng":-73.90951,"capacity":17},{"name":"Walton Ave & E 151 St","lat":40.82091,"lng":-73.92754,"capacity":29},{"name":"Southern Blvd & E 172 St","lat":40.83412,"lng":-73.88955,"capacity":19},{"name":"Broadway & Madison St","lat":40.68822,"lng":-73.91966,"capacity":25},{"name":"Fulton St & Broadway","lat":40.71107,"lng":-74.00945,"capacity":49},{"name":"Concourse Village West & E 156 St","lat":40.82316,"lng":-73.92327,"capacity":21},{"name":"Pacific St & Thomas S. Boyland St","lat":40.67568,"lng":-73.91396,"capacity":21},{"name":"Pioneer St & Van Brunt St","lat":40.67904,"lng":-74.01117,"capacity":39},{"name":"E 123 St & Lexington Ave","lat":40.80293,"lng":-73.9379,"capacity":27},{"name":"11 Ave & W 27 St","lat":40.7514,"lng":-74.00523,"capacity":45},{"name":"38 St & 30 Ave","lat":40.76417,"lng":-73.91584,"capacity":27},{"name":"W 170 St & University Ave","lat":40.84207,"lng":-73.92607,"capacity":22},{"name":"Amsterdam Ave & W 79 St","lat":40.78294,"lng":-73.97865,"capacity":48},{"name":"Thomas S. Boyland St & Fulton St","lat":40.67854,"lng":-73.91367,"capacity":24},{"name":"20 Ave & 31 St","lat":40.78001,"lng":-73.90668,"capacity":21},{"name":"53 St & Flushing Ave","lat":40.71435,"lng":-73.91405,"capacity":19},{"name":"W 145 St & Amsterdam Ave","lat":40.82524,"lng":-73.94726,"capacity":24},{"name":"Lott St & Erasmus St","lat":40.64949,"lng":-73.95408,"capacity":19},{"name":"112 St & 67 Rd","lat":40.72955,"lng":-73.84263,"capacity":18},{"name":"Grand Concourse & E 181 St","lat":40.85466,"lng":-73.9015,"capacity":23},{"name":"Putnam Ave & Ralph Ave","lat":40.68705,"lng":-73.92338,"capacity":20},{"name":"79 St & 37 Ave","lat":40.74937,"lng":-73.88714,"capacity":21},{"name":"1 Ave & E 6 St","lat":40.72633,"lng":-73.98617,"capacity":94},{"name":"Louis Nine Blvd & Intervale Ave","lat":40.832,"lng":-73.89269,"capacity":19},{"name":"46 St & 7 Ave","lat":40.64474,"lng":-74.00375,"capacity":21},{"name":"Broadway & W 168 St","lat":40.8409,"lng":-73.93972,"capacity":31},{"name":"Madison St & Malcolm X Blvd","lat":40.68713,"lng":-73.93008,"capacity":25},{"name":"10 Ave & W 202 St","lat":40.86128,"lng":-73.92142,"capacity":23},{"name":"E 156 St & Brook Ave","lat":40.81982,"lng":-73.91241,"capacity":19},{"name":"Concord St & Bridge St","lat":40.69767,"lng":-73.98476,"capacity":19},{"name":"Hudson St & W 13 St","lat":40.74006,"lng":-74.00527,"capacity":42},{"name":"Little West St & 1 Pl","lat":40.70569,"lng":-74.01678,"capacity":35},{"name":"3 Ave & E 174 St","lat":40.84224,"lng":-73.8985,"capacity":35},{"name":"N 10 St & Berry St","lat":40.72025,"lng":-73.95708,"capacity":47},{"name":"DeKalb Ave & Hudson Ave","lat":40.68989,"lng":-73.98101,"capacity":74},{"name":"50 St & 7 Ave","lat":40.6425,"lng":-74.00605,"capacity":22},{"name":"Judge St & Britton Ave","lat":40.74454,"lng":-73.88112,"capacity":23},{"name":"Queens Blvd S & Yellowstone Blvd","lat":40.72261,"lng":-73.84721,"capacity":24},{"name":"E 155 St & Courtlandt Ave","lat":40.82057,"lng":-73.91758,"capacity":19},{"name":"Franklin St & W Broadway","lat":40.71912,"lng":-74.00667,"capacity":33},{"name":"8 Ave & W 52 St","lat":40.76371,"lng":-73.98516,"capacity":31},{"name":"Flushing Ave & Vanderbilt Ave","lat":40.69795,"lng":-73.97078,"capacity":25},{"name":"Leonard St & Nassau Ave","lat":40.72396,"lng":-73.94984,"capacity":36},{"name":"48 Ave & 5 St","lat":40.74436,"lng":-73.95587,"capacity":79},{"name":"3 Ave & Carroll St","lat":40.67703,"lng":-73.9865,"capacity":27},{"name":"E 118 St & Park Ave","lat":40.80069,"lng":-73.94255,"capacity":27},{"name":"Old Fulton St","lat":40.70277,"lng":-73.99384,"capacity":39},{"name":"Southern Blvd & E 187 St","lat":40.8535,"lng":-73.88177,"capacity":23},{"name":"E 70 St & Madison Ave","lat":40.77059,"lng":-73.96655,"capacity":44},{"name":"E 118 St & 3 Ave","lat":40.79914,"lng":-73.93892,"capacity":31},{"name":"34 St & 5 Ave","lat":40.6541,"lng":-74.00113,"capacity":19},{"name":"Manhattan Ave & Devoe St","lat":40.71353,"lng":-73.94599,"capacity":24},{"name":"Clay Ave & E 173 St","lat":40.84326,"lng":-73.90487,"capacity":19},{"name":"E 165 St & Clay Ave","lat":40.82809,"lng":-73.91288,"capacity":19},{"name":"111 St & 53 Ave","lat":40.74336,"lng":-73.85129,"capacity":25},{"name":"Adam Clayton Powell Blvd & W 138 St","lat":40.81696,"lng":-73.9423,"capacity":23},{"name":"W 20 St & 11 Ave","lat":40.74674,"lng":-74.00776,"capacity":73},{"name":"79 St & Roosevelt Ave","lat":40.74718,"lng":-73.88675,"capacity":23},{"name":"Benham St & Roosevelt Ave","lat":40.74841,"lng":-73.8751,"capacity":24},{"name":"St James Ave & 51 Ave","lat":40.73813,"lng":-73.88104,"capacity":21},{"name":"108 St & Jewel Ave","lat":40.72374,"lng":-73.8448,"capacity":18},{"name":"E 91 St & 2 Ave","lat":40.78115,"lng":-73.94963,"capacity":73},{"name":"E 191 St & Bathgate Ave","lat":40.8601,"lng":-73.8866,"capacity":30},{"name":"Bronx Shore Comfort Station","lat":40.80046,"lng":-73.92404,"capacity":25},{"name":"Woodside Ave & 55 St","lat":40.74679,"lng":-73.90893,"capacity":19},{"name":"W 18 St & 9 Ave","lat":40.74353,"lng":-74.00368,"capacity":39},{"name":"S 4 St & Rodney St","lat":40.70934,"lng":-73.95608,"capacity":21},{"name":"Pacific St & Smith St","lat":40.68788,"lng":-73.98939,"capacity":47},{"name":"65 St & 35 Ave","lat":40.75053,"lng":-73.8977,"capacity":25},{"name":"Cathedral Pkwy & Broadway","lat":40.80421,"lng":-73.96699,"capacity":25},{"name":"Prospect Park SW & 16 St","lat":40.65727,"lng":-73.97416,"capacity":33},{"name":"W 235 St & Independence Ave","lat":40.88641,"lng":-73.9144,"capacity":18},{"name":"E 63 St & 3 Ave","lat":40.76395,"lng":-73.9646,"capacity":57},{"name":"Greenwich Ave & 8 Ave","lat":40.73902,"lng":-74.00264,"capacity":75},{"name":"46 St & Queens Blvd","lat":40.7435,"lng":-73.91861,"capacity":33},{"name":"30 Ave & 12 St","lat":40.77172,"lng":-73.93159,"capacity":33},{"name":"Clarkson Ave & E 37 St","lat":40.65577,"lng":-73.9432,"capacity":22},{"name":"43 Ave & 47 St","lat":40.74481,"lng":-73.91729,"capacity":33},{"name":"Broadway & 74 St","lat":40.74653,"lng":-73.89121,"capacity":28},{"name":"Center Blvd & 51 Ave","lat":40.74337,"lng":-73.95961,"capacity":23},{"name":"E 102 St & Park Ave","lat":40.79048,"lng":-73.95033,"capacity":33},{"name":"Whitney Ave & Ketcham Pl","lat":40.74249,"lng":-73.87809,"capacity":25},{"name":"Bleecker St & Forest Ave","lat":40.7107,"lng":-73.90525,"capacity":19},{"name":"Broadway & W 185 St","lat":40.85254,"lng":-73.93441,"capacity":21},{"name":"Myrtle Ave & Lewis Ave","lat":40.69682,"lng":-73.93757,"capacity":23},{"name":"63 Dr & 102 St","lat":40.73244,"lng":-73.85404,"capacity":14},{"name":"W Broadway & Spring St","lat":40.72495,"lng":-74.00166,"capacity":99},{"name":"Adam Clayton Powell Blvd & W 115 St","lat":40.80254,"lng":-73.95324,"capacity":22},{"name":"Clarkson Ave & E 40 St","lat":40.65592,"lng":-73.94068,"capacity":30},{"name":"Jerome Ave & E 164 St","lat":40.83144,"lng":-73.92623,"capacity":21},{"name":"37 St & Fort Hamilton Pkwy","lat":40.64417,"lng":-73.98923,"capacity":12},{"name":"W 180 St & Fort Washington Ave","lat":40.84997,"lng":-73.93842,"capacity":24},{"name":"Pike St & E Broadway","lat":40.71407,"lng":-73.99294,"capacity":34},{"name":"Roebling St & N 4 St","lat":40.71469,"lng":-73.95739,"capacity":25},{"name":"19 St & 8 Ave","lat":40.65849,"lng":-73.98554,"capacity":23},{"name":"Cortelyou Rd & Albany Ave","lat":40.64483,"lng":-73.93853,"capacity":21},{"name":"Park Pl & Franklin Ave","lat":40.67418,"lng":-73.95655,"capacity":20},{"name":"Ocean Pkwy & Church Ave","lat":40.64472,"lng":-73.97451,"capacity":25},{"name":"20 Ave & 42 St","lat":40.77542,"lng":-73.90006,"capacity":21},{"name":"Broadway & 49 St","lat":40.75539,"lng":-73.91152,"capacity":25},{"name":"W 40 St & 7 Ave","lat":40.75482,"lng":-73.98815,"capacity":45},{"name":"Dock 72 Way & Market St","lat":40.69985,"lng":-73.97141,"capacity":22},{"name":"Rugby Rd & Beverley Rd","lat":40.64435,"lng":-73.96591,"capacity":25},{"name":"St Johns Pl & Utica Ave","lat":40.6705,"lng":-73.9308,"capacity":21},{"name":"Schenectady Ave & Prospect Pl","lat":40.67351,"lng":-73.93363,"capacity":19},{"name":"21 St & 43 Ave","lat":40.75053,"lng":-73.94595,"capacity":27},{"name":"Park Circle & East Dr","lat":40.65157,"lng":-73.97221,"capacity":29},{"name":"Greenpoint Ave & Monitor St","lat":40.73224,"lng":-73.94383,"capacity":20},{"name":"4 Ave & 72 St","lat":40.63283,"lng":-74.02439,"capacity":14},{"name":"Gansevoort St & Hudson St","lat":40.73938,"lng":-74.00521,"capacity":120},{"name":"44 Dr & Jackson Ave","lat":40.74718,"lng":-73.94326,"capacity":34},{"name":"W 46 St & 11 Ave","lat":40.76341,"lng":-73.99667,"capacity":25},{"name":"Valentine Ave & E 181 St","lat":40.85412,"lng":-73.89932,"capacity":21},{"name":"Queens Blvd & Albion Ave","lat":40.73856,"lng":-73.88553,"capacity":21},{"name":"Putnam Ave & Wyckoff Ave","lat":40.69811,"lng":-73.90904,"capacity":24},{"name":"Davidson Ave & W Burnside Ave","lat":40.85365,"lng":-73.90873,"capacity":32},{"name":"E 12 St & 3 Ave","lat":40.73223,"lng":-73.9889,"capacity":70},{"name":"E Tremont Ave & Jerome Ave","lat":40.85175,"lng":-73.90896,"capacity":20},{"name":"60 Ave & Junction Blvd","lat":40.73466,"lng":-73.86501,"capacity":24},{"name":"2 Ave & E 96 St","lat":40.78396,"lng":-73.94717,"capacity":45},{"name":"46 St & 30 Rd","lat":40.76072,"lng":-73.91099,"capacity":21},{"name":"Franklin Ave & E 169 St","lat":40.83169,"lng":-73.90211,"capacity":19},{"name":"Intervale Ave & Kelly St","lat":40.8273,"lng":-73.89637,"capacity":20},{"name":"E 170 St & Webster Ave","lat":40.83618,"lng":-73.9073,"capacity":25},{"name":"Lenox Ave & W 130 St","lat":40.81079,"lng":-73.94307,"capacity":25},{"name":"W 43 St & 10 Ave","lat":40.76009,"lng":-73.99462,"capacity":117},{"name":"Wadsworth Ave & W 179 St","lat":40.84847,"lng":-73.93606,"capacity":35},{"name":"Caton Ave & Bedford Ave","lat":40.65237,"lng":-73.95623,"capacity":22},{"name":"Corona Ave & 98 St","lat":40.74448,"lng":-73.86516,"capacity":19},{"name":"5 Ave & 88 St","lat":40.62021,"lng":-74.02717,"capacity":16},{"name":"Park Pl & Carlton Ave","lat":40.67736,"lng":-73.97211,"capacity":27},{"name":"60 St & 60 Rd","lat":40.71592,"lng":-73.90601,"capacity":19},{"name":"Queens Blvd S & 76 Rd","lat":40.7172,"lng":-73.83524,"capacity":18},{"name":"57 St & Grand Ave","lat":40.71921,"lng":-73.9124,"capacity":19},{"name":"98 St & 64 Rd","lat":40.72973,"lng":-73.85817,"capacity":18},{"name":"Bainbridge Ave & E 206 St","lat":40.8751,"lng":-73.87941,"capacity":23},{"name":"St Ann's Ave & Westchester Ave","lat":40.81589,"lng":-73.91192,"capacity":19},{"name":"Knickerbocker Ave & Thames St","lat":40.70539,"lng":-73.92976,"capacity":20},{"name":"67 St & Erik Pl","lat":40.63338,"lng":-74.01656,"capacity":25},{"name":"50 Ave & 65 St","lat":40.73707,"lng":-73.90077,"capacity":19},{"name":"Mercer St & Spring St","lat":40.72363,"lng":-73.9995,"capacity":67},{"name":"E 196 St & Valentine Ave","lat":40.86744,"lng":-73.89198,"capacity":25},{"name":"Adam Clayton Powell Blvd & W 141 St","lat":40.81924,"lng":-73.94106,"capacity":24},{"name":"Colonial Rd & Wakeman Pl","lat":40.64067,"lng":-74.0294,"capacity":18},{"name":"Eames Pl & Claflin Ave","lat":40.8692,"lng":-73.90121,"capacity":20},{"name":"Broadway & Furman Ave","lat":40.68139,"lng":-73.90756,"capacity":29},{"name":"Marcy Ave & Hart St","lat":40.69302,"lng":-73.94868,"capacity":20},{"name":"35 St & 21 Ave","lat":40.77675,"lng":-73.90656,"capacity":23},{"name":"Roosevelt Island Tramway","lat":40.75728,"lng":-73.9536,"capacity":39},{"name":"21 Ave & Shore Blvd","lat":40.78396,"lng":-73.91689,"capacity":21},{"name":"Monroe St & Patchen Ave","lat":40.68814,"lng":-73.92693,"capacity":20},{"name":"34 Ave & 83 St","lat":40.75394,"lng":-73.8839,"capacity":22},{"name":"Beck St & Leggett Ave","lat":40.81508,"lng":-73.89994,"capacity":20},{"name":"Fulton St & Adams St","lat":40.69242,"lng":-73.98949,"capacity":47},{"name":"Kingsbridge Terrace & W 230 St","lat":40.87555,"lng":-73.90212,"capacity":20},{"name":"48 Ave & 41 St","lat":40.73986,"lng":-73.924,"capacity":21},{"name":"16 St & 4 Ave","lat":40.6662,"lng":-73.99247,"capacity":30},{"name":"Suydam St & Knickerbocker Ave","lat":40.70201,"lng":-73.92377,"capacity":27},{"name":"5 Ave & 67 St","lat":40.63593,"lng":-74.01976,"capacity":20},{"name":"Fairmount Pl & Prospect Ave","lat":40.8431,"lng":-73.88993,"capacity":18},{"name":"1 Ave & E 118 St","lat":40.79746,"lng":-73.9345,"capacity":24},{"name":"Wythe Ave & N 13 St","lat":40.72277,"lng":-73.95702,"capacity":43},{"name":"Congress St & Clinton St","lat":40.68826,"lng":-73.99545,"capacity":44},{"name":"Broadway & Battery Pl","lat":40.70463,"lng":-74.01362,"capacity":52},{"name":"Riverside Dr & W 104 St","lat":40.80134,"lng":-73.97115,"capacity":58},{"name":"W 43 St & 6 Ave","lat":40.75527,"lng":-73.98317,"capacity":63},{"name":"Colonial Rd & 83 St","lat":40.62691,"lng":-74.03564,"capacity":16},{"name":"Frost St & Debevoise Ave","lat":40.71882,"lng":-73.93948,"capacity":22},{"name":"64 Rd & Grand Central Pkwy","lat":40.73362,"lng":-73.84494,"capacity":12},{"name":"Jerome Ave & E Gun Hill Rd","lat":40.88239,"lng":-73.88146,"capacity":19},{"name":"Brook Ave & E 138 St","lat":40.80741,"lng":-73.91924,"capacity":23},{"name":"New Utrecht Ave & 9 Ave","lat":40.64625,"lng":-73.99453,"capacity":19},{"name":"Popham Ave & W 174 St","lat":40.84775,"lng":-73.92208,"capacity":20},{"name":"Morris Ave & McClellan St","lat":40.83158,"lng":-73.9149,"capacity":22},{"name":"Park Pl & Utica Ave","lat":40.67242,"lng":-73.93094,"capacity":21},{"name":"Myrtle Ave & St Edwards St","lat":40.69327,"lng":-73.97704,"capacity":56},{"name":"88 St & Astoria Blvd","lat":40.76424,"lng":-73.8812,"capacity":20},{"name":"34 Ave & 31 St","lat":40.7596,"lng":-73.92714,"capacity":19},{"name":"Chauncey St & Stuyvesant Ave","lat":40.68012,"lng":-73.93168,"capacity":25},{"name":"Front St & Gold St","lat":40.70224,"lng":-73.98258,"capacity":37},{"name":"Liberty St & Nassau St","lat":40.70859,"lng":-74.00935,"capacity":45},{"name":"Allen St & Rivington St","lat":40.7202,"lng":-73.98998,"capacity":42},{"name":"Ocean Pkwy & Ave C","lat":40.64078,"lng":-73.97395,"capacity":16},{"name":"Queens Blvd & Broadway","lat":40.73672,"lng":-73.87728,"capacity":25},{"name":"Amsterdam Ave & W 183 St","lat":40.84925,"lng":-73.93022,"capacity":21},{"name":"E 19 St & Beverley Rd","lat":40.64483,"lng":-73.9613,"capacity":19},{"name":"Jerome Ave & Ogden Ave","lat":40.8298,"lng":-73.93101,"capacity":21},{"name":"E 85 St & 3 Ave","lat":40.77801,"lng":-73.95407,"capacity":39},{"name":"24 Ave & 29 St","lat":40.7729,"lng":-73.91614,"capacity":45},{"name":"99 St & 38 Ave","lat":40.75055,"lng":-73.86725,"capacity":30},{"name":"3 Ave & 81 St","lat":40.627,"lng":-74.02948,"capacity":16},{"name":"25 Ave & 96 St","lat":40.76447,"lng":-73.87369,"capacity":21},{"name":"Queens Blvd & 56 Ave","lat":40.73481,"lng":-73.87431,"capacity":38},{"name":"New York Ave & Lenox Rd","lat":40.65458,"lng":-73.94716,"capacity":24},{"name":"5 Ave & E 78 St","lat":40.77632,"lng":-73.96427,"capacity":47},{"name":"Roosevelt Ave & 104 St","lat":40.74984,"lng":-73.86156,"capacity":24},{"name":"Driggs Ave & Lorimer St","lat":40.72179,"lng":-73.95042,"capacity":27},{"name":"Greenwich St & Rector St","lat":40.70835,"lng":-74.01349,"capacity":59},{"name":"Broadway & 31 St","lat":40.76194,"lng":-73.92513,"capacity":35},{"name":"27 Ave & 9 St","lat":40.77398,"lng":-73.93091,"capacity":28},{"name":"E 27 St & 1 Ave","lat":40.73945,"lng":-73.97681,"capacity":87},{"name":"4 Ave & 9 St","lat":40.67051,"lng":-73.98877,"capacity":31},{"name":"E 48 St & 3 Ave","lat":40.7546,"lng":-73.97188,"capacity":78},{"name":"S 5 Pl & S 5 St","lat":40.71045,"lng":-73.96088,"capacity":43},{"name":"Vernon Blvd & 10 St","lat":40.76719,"lng":-73.93736,"capacity":41},{"name":"20 Ave & 48 St","lat":40.7729,"lng":-73.89685,"capacity":23},{"name":"Broadway & W 133 St","lat":40.81903,"lng":-73.95616,"capacity":21},{"name":"Pacific St & Rochester Ave","lat":40.67639,"lng":-73.92748,"capacity":19},{"name":"49 Ave & 21 St","lat":40.74252,"lng":-73.94885,"capacity":21},{"name":"Forest Ave & Summerfield St","lat":40.69922,"lng":-73.89795,"capacity":23},{"name":"Bergen St & Smith St","lat":40.68674,"lng":-73.99063,"capacity":48},{"name":"E 14 St & 1 Ave","lat":40.73139,"lng":-73.98287,"capacity":34},{"name":"Cypress Ave & George St","lat":40.69812,"lng":-73.90271,"capacity":19},{"name":"62 St & 34 Ave","lat":40.75201,"lng":-73.89986,"capacity":22},{"name":"51 St & 43 Ave","lat":40.74451,"lng":-73.91412,"capacity":27},{"name":"Hamilton Pl & W 140 St","lat":40.82276,"lng":-73.95135,"capacity":21},{"name":"31 Ave & Steinway St","lat":40.76115,"lng":-73.91701,"capacity":27},{"name":"Eastern Pkwy & Schenectady Ave","lat":40.66876,"lng":-73.93376,"capacity":24},{"name":"W 42 St & 8 Ave","lat":40.75757,"lng":-73.99099,"capacity":41},{"name":"Fresh Pond Rd & Flushing Ave","lat":40.72155,"lng":-73.90295,"capacity":19},{"name":"Ogden Ave & W 164 St","lat":40.83281,"lng":-73.92937,"capacity":19},{"name":"Lexington Ave & E 120 St","lat":40.80131,"lng":-73.93982,"capacity":29},{"name":"Jerome Ave & Bedford Park Blvd E","lat":40.87307,"lng":-73.88971,"capacity":25},{"name":"Ocean Ave & Tennis Ct","lat":40.64873,"lng":-73.96084,"capacity":23},{"name":"Paul Ave & W 205 St","lat":40.87704,"lng":-73.88943,"capacity":19},{"name":"Manhattan Ave & Leonard St","lat":40.72084,"lng":-73.94844,"capacity":18},{"name":"Ave A & E 14 St","lat":40.73031,"lng":-73.98047,"capacity":41},{"name":"W 84 St & Amsterdam Ave","lat":40.78621,"lng":-73.9756,"capacity":63},{"name":"Edgecombe Ave & W 141 St","lat":40.82068,"lng":-73.94514,"capacity":21},{"name":"Cypress Ave & Palmetto St","lat":40.70157,"lng":-73.90876,"capacity":25},{"name":"St Marks Pl & 2 Ave","lat":40.72842,"lng":-73.98714,"capacity":73},{"name":"11 Ave & W 59 St","lat":40.7715,"lng":-73.99046,"capacity":32},{"name":"E 169 St & Fox St","lat":40.82718,"lng":-73.89372,"capacity":19},{"name":"30 Ave & 47 St","lat":40.76129,"lng":-73.90956,"capacity":21},{"name":"E 89 St & York Ave","lat":40.77795,"lng":-73.94604,"capacity":35},{"name":"FDR Drive & E 35 St","lat":40.74422,"lng":-73.97121,"capacity":123},{"name":"31 St & Ditmars Blvd","lat":40.77617,"lng":-73.91048,"capacity":24},{"name":"Austin St & 63 Dr","lat":40.7273,"lng":-73.86398,"capacity":16},{"name":"W 41 St & 8 Ave","lat":40.75641,"lng":-73.99003,"capacity":105},{"name":"10 Ave & W 215 St","lat":40.86932,"lng":-73.9152,"capacity":21},{"name":"W 129 St & Convent Ave","lat":40.81439,"lng":-73.95325,"capacity":30},{"name":"Lafayette St & Jersey St","lat":40.72456,"lng":-73.99565,"capacity":60},{"name":"Anderson Ave & W 164 St","lat":40.83206,"lng":-73.92742,"capacity":19},{"name":"Central Park S & Grand Army Plaza","lat":40.76456,"lng":-73.97347,"capacity":85},{"name":"Frederick Douglass Blvd & W 139 St","lat":40.81901,"lng":-73.94477,"capacity":22},{"name":"29 St & 5 Ave","lat":40.65699,"lng":-73.99819,"capacity":19},{"name":"Knolls Crescent & Kappock St","lat":40.87875,"lng":-73.91743,"capacity":16},{"name":"W 37 St & Broadway","lat":40.75227,"lng":-73.98771,"capacity":84},{"name":"E 51 St & 2 Ave","lat":40.75529,"lng":-73.96764,"capacity":61},{"name":"E 103 St & 2 Ave","lat":40.78864,"lng":-73.9436,"capacity":33},{"name":"Prospect Ave & E 167 St","lat":40.8263,"lng":-73.89875,"capacity":19},{"name":"W 52 St & 6 Ave","lat":40.76133,"lng":-73.97982,"capacity":59},{"name":"Clinton St & Centre St","lat":40.67434,"lng":-74.00195,"capacity":21},{"name":"Paul Ave & Mosholu Pkwy","lat":40.88029,"lng":-73.88607,"capacity":19},{"name":"Prospect Ave & Greenwood Ave","lat":40.65175,"lng":-73.97599,"capacity":20},{"name":"Irving Ave & Harman St","lat":40.70108,"lng":-73.9179,"capacity":21},{"name":"E 58 St & Madison Ave","lat":40.76303,"lng":-73.9721,"capacity":66},{"name":"Monroe St & Bedford Ave","lat":40.68514,"lng":-73.95381,"capacity":23},{"name":"76 St & 45 Ave","lat":40.7411,"lng":-73.88837,"capacity":19},{"name":"W 78 St & Broadway","lat":40.7834,"lng":-73.98093,"capacity":39},{"name":"Willoughby St & Ashland Pl","lat":40.69178,"lng":-73.97877,"capacity":31},{"name":"Ave D & E 10 St","lat":40.72507,"lng":-73.97516,"capacity":30},{"name":"62 St & Northern Blvd","lat":40.75418,"lng":-73.90032,"capacity":27},{"name":"Schenectady Ave & President St","lat":40.66732,"lng":-73.93398,"capacity":22},{"name":"Edgecombe Ave & W 167 St","lat":40.83819,"lng":-73.93609,"capacity":23},{"name":"Washington Ave & Park Ave","lat":40.6961,"lng":-73.96751,"capacity":55},{"name":"5 Ave & E 30 St","lat":40.74598,"lng":-73.98629,"capacity":56},{"name":"Waldo Ave & Manhattan College Pkwy","lat":40.88902,"lng":-73.90288,"capacity":20},{"name":"Adam Clayton Powell Blvd & W 123 St","lat":40.80783,"lng":-73.94937,"capacity":31},{"name":"Church Ave & E 45 St","lat":40.65159,"lng":-73.93535,"capacity":24},{"name":"Suydam St & Broadway","lat":40.69544,"lng":-73.93223,"capacity":32},{"name":"Sterling Pl & Bedford Ave","lat":40.67269,"lng":-73.95413,"capacity":25},{"name":"E 16 St & Irving Pl","lat":40.73537,"lng":-73.98797,"capacity":79},{"name":"6 Ave & Broome St","lat":40.72431,"lng":-74.00473,"capacity":72},{"name":"E 187 St & 3 Ave","lat":40.85724,"lng":-73.8909,"capacity":19},{"name":"Lexington Ave & E 36 St","lat":40.74757,"lng":-73.9788,"capacity":23},{"name":"32 Ave & 81 St","lat":40.75763,"lng":-73.88682,"capacity":19},{"name":"Frost St & Meeker Ave","lat":40.71766,"lng":-73.9488,"capacity":38},{"name":"Grand Concourse & E 184 St","lat":40.85941,"lng":-73.8985,"capacity":23},{"name":"Metropolitan Ave & 65 Ln","lat":40.71225,"lng":-73.89111,"capacity":26},{"name":"Varick St & Watts St","lat":40.72364,"lng":-74.00602,"capacity":49},{"name":"Jerome Ave & W 195 St","lat":40.86874,"lng":-73.89657,"capacity":32},{"name":"White St & Johnson Ave","lat":40.70717,"lng":-73.93581,"capacity":23},{"name":"28 St & 41 Ave","lat":40.75105,"lng":-73.93797,"capacity":27},{"name":"21 St & 4 Ave","lat":40.66258,"lng":-73.99555,"capacity":21},{"name":"Harrison Pl & Porter Ave","lat":40.70686,"lng":-73.92851,"capacity":20},{"name":"Union Ave & E 169 St","lat":40.82995,"lng":-73.8988,"capacity":19},{"name":"5 Ave & 41 St","lat":40.64998,"lng":-74.00514,"capacity":30},{"name":"Southern Blvd & Xavier Way","lat":40.86149,"lng":-73.88103,"capacity":31},{"name":"Caton Ave & St. Pauls Pl","lat":40.65153,"lng":-73.96277,"capacity":21},{"name":"Central Ave & Decatur St","lat":40.6882,"lng":-73.90798,"capacity":24},{"name":"Orchard St & Grand St","lat":40.71732,"lng":-73.99068,"capacity":45},{"name":"43 St & 35 Ave","lat":40.75414,"lng":-73.91954,"capacity":25},{"name":"N 5 St & Wythe Ave","lat":40.71839,"lng":-73.9615,"capacity":39},{"name":"48 St & 5 Ave","lat":40.64635,"lng":-74.00927,"capacity":27},{"name":"92 St & Astoria Blvd","lat":40.76313,"lng":-73.8772,"capacity":18},{"name":"Jackson St & Leonard St","lat":40.71638,"lng":-73.94821,"capacity":22},{"name":"7 Ave & 17 St","lat":40.66094,"lng":-73.9868,"capacity":21},{"name":"18 St & 27 Ave","lat":40.77277,"lng":-73.92744,"capacity":23},{"name":"Albemarle Rd & McDonald Ave","lat":40.64507,"lng":-73.97968,"capacity":20},{"name":"Greene St & Prince St","lat":40.72512,"lng":-73.9993,"capacity":45},{"name":"43 St & Broadway","lat":40.75773,"lng":-73.91664,"capacity":25},{"name":"99 St & 3 Ave","lat":40.61451,"lng":-74.03502,"capacity":14},{"name":"3 Ave & Wakeman Pl","lat":40.63825,"lng":-74.02471,"capacity":27},{"name":"104 St & 32 Ave","lat":40.75951,"lng":-73.86491,"capacity":22},{"name":"E 135 St & St Ann's Ave","lat":40.80509,"lng":-73.91889,"capacity":23},{"name":"Schenectady Ave & Maple St","lat":40.66178,"lng":-73.93445,"capacity":19},{"name":"Brooklyn Ave & Dean St","lat":40.67669,"lng":-73.94437,"capacity":19},{"name":"3 Ave & Franklin Ave","lat":40.82696,"lng":-73.90745,"capacity":19},{"name":"35 Ave & 10 St","lat":40.76315,"lng":-73.93986,"capacity":26},{"name":"W 144 St & Adam Clayton Powell Blvd","lat":40.82088,"lng":-73.93925,"capacity":24},{"name":"3 Ave & Schermerhorn St","lat":40.68683,"lng":-73.97968,"capacity":35},{"name":"Broadway & W 58 St","lat":40.76695,"lng":-73.98169,"capacity":79},{"name":"Stanton St & Chrystie St","lat":40.72229,"lng":-73.99148,"capacity":47},{"name":"Monitor St & Meeker Ave","lat":40.72123,"lng":-73.94184,"capacity":21},{"name":"Onderdonk Ave & Gates Ave","lat":40.70413,"lng":-73.90737,"capacity":19},{"name":"Prospect Ave & E 151 St","lat":40.81423,"lng":-73.90393,"capacity":21},{"name":"36 Ave & 31 St","lat":40.75654,"lng":-73.92956,"capacity":27},{"name":"Park Pl & Thomas S. Boyland St","lat":40.67154,"lng":-73.91433,"capacity":23},{"name":"Lenox Ave & W 140 St","lat":40.81725,"lng":-73.93879,"capacity":23},{"name":"E 118 St & Madison Ave","lat":40.80149,"lng":-73.94425,"capacity":29},{"name":"Underhill Ave & Pacific St","lat":40.68048,"lng":-73.96468,"capacity":27},{"name":"113 St & Jewel Ave","lat":40.72521,"lng":-73.83928,"capacity":12},{"name":"Church St & Worth St","lat":40.71689,"lng":-74.0065,"capacity":45},{"name":"49 Ave & 27 St","lat":40.74113,"lng":-73.94252,"capacity":25},{"name":"E 84 St & Park Ave","lat":40.77863,"lng":-73.95772,"capacity":45},{"name":"44 St & 48 Ave","lat":40.73941,"lng":-73.92132,"capacity":24},{"name":"E Fordham Rd & Webster Ave","lat":40.86175,"lng":-73.89105,"capacity":35},{"name":"Boerum St & Broadway","lat":40.70538,"lng":-73.94977,"capacity":19},{"name":"103 St & 41 Ave","lat":40.74875,"lng":-73.86285,"capacity":23},{"name":"Henry St & Remsen St","lat":40.69401,"lng":-73.99465,"capacity":23},{"name":"Prospect Pl & Howard Ave","lat":40.67261,"lng":-73.91977,"capacity":19},{"name":"Walton Ave & E 176 St","lat":40.84833,"lng":-73.90971,"capacity":23},{"name":"Cortelyou Rd & E 34 St","lat":40.64454,"lng":-73.94486,"capacity":19},{"name":"Ditmars Blvd & 94 St","lat":40.7702,"lng":-73.87587,"capacity":20},{"name":"Marcy Ave & Gates Ave","lat":40.68668,"lng":-73.94742,"capacity":21},{"name":"Broadway & W 160 St","lat":40.83578,"lng":-73.9434,"capacity":22},{"name":"3 Ave & E 189 St","lat":40.85985,"lng":-73.89135,"capacity":30},{"name":"36 St & 47 Ave","lat":40.74222,"lng":-73.92935,"capacity":19},{"name":"E 167 St & Bryant Ave","lat":40.82675,"lng":-73.88872,"capacity":20},{"name":"Decatur St & Saratoga Ave","lat":40.68332,"lng":-73.91711,"capacity":21},{"name":"34 Ave & 89 St","lat":40.75437,"lng":-73.87833,"capacity":27},{"name":"47 Ave & 48 St","lat":40.74086,"lng":-73.91708,"capacity":20},{"name":"58 St & 32 Ave","lat":40.75574,"lng":-73.90343,"capacity":19},{"name":"Centre St & Worth St","lat":40.71495,"lng":-74.00234,"capacity":120},{"name":"W 218 St & Broadway","lat":40.87139,"lng":-73.91432,"capacity":27},{"name":"31 St & Northern Blvd","lat":40.75187,"lng":-73.93349,"capacity":35},{"name":"Grand Central Pkwy & 62 Dr","lat":40.73694,"lng":-73.84601,"capacity":14},{"name":"Bedford Ave & Maple St","lat":40.66035,"lng":-73.95679,"capacity":23},{"name":"Park Ave & E 179 St","lat":40.85014,"lng":-73.89818,"capacity":25},{"name":"27 Ave & 3 St","lat":40.77485,"lng":-73.9342,"capacity":19},{"name":"Jefferson Ave & Evergreen Ave","lat":40.68989,"lng":-73.91458,"capacity":17},{"name":"Willis Ave & E 137 St","lat":40.80838,"lng":-73.9236,"capacity":22},{"name":"Vesey Pl & River Terrace","lat":40.71534,"lng":-74.01658,"capacity":57},{"name":"72 St & Northern Blvd","lat":40.75473,"lng":-73.89458,"capacity":19},{"name":"St Marks Pl & 4 Ave","lat":40.68197,"lng":-73.98034,"capacity":27},{"name":"3 Ave & 77 St","lat":40.62991,"lng":-74.02834,"capacity":16},{"name":"Smith St & 3 St","lat":40.67872,"lng":-73.99599,"capacity":25},{"name":"Laight St & Hudson St","lat":40.72185,"lng":-74.00772,"capacity":87},{"name":"E 38 St & Church Ave","lat":40.65106,"lng":-73.94193,"capacity":24},{"name":"Pacific St & Troy Ave","lat":40.67686,"lng":-73.93607,"capacity":20},{"name":"Grand Concourse & E Mosholu Pkwy S","lat":40.87796,"lng":-73.88476,"capacity":21},{"name":"Henry St & Degraw St","lat":40.68475,"lng":-73.99917,"capacity":23},{"name":"Inwood Ave & W 170 St","lat":40.84054,"lng":-73.91923,"capacity":21},{"name":"Schermerhorn St & Hoyt St","lat":40.68863,"lng":-73.98519,"capacity":60},{"name":"McGuinness Blvd & Eagle St","lat":40.73555,"lng":-73.95284,"capacity":42},{"name":"Bainbridge Ave & E 196 St","lat":40.86648,"lng":-73.89042,"capacity":18},{"name":"Clinton St & Grand St","lat":40.71574,"lng":-73.98699,"capacity":15},{"name":"N 6 St & Bedford Ave","lat":40.71745,"lng":-73.95851,"capacity":28},{"name":"Delancey St & Eldridge St","lat":40.71938,"lng":-73.99148,"capacity":31},{"name":"E 179 St & Daly Ave","lat":40.84335,"lng":-73.88247,"capacity":19},{"name":"St James Pl & Oliver St","lat":40.71308,"lng":-73.99851,"capacity":48},{"name":"New York Ave & St Marks Ave","lat":40.67514,"lng":-73.94716,"capacity":23},{"name":"Madison Ave & E 51 St","lat":40.75863,"lng":-73.97513,"capacity":43},{"name":"Ave C & E 16 St","lat":40.72985,"lng":-73.97455,"capacity":48},{"name":"Lincoln Pl & Classon Ave","lat":40.67217,"lng":-73.9609,"capacity":28},{"name":"Greenpoint Ave & 47 St","lat":40.7424,"lng":-73.91808,"capacity":25},{"name":"Troy Ave & Linden Blvd","lat":40.6533,"lng":-73.93644,"capacity":23},{"name":"Union Ave & N 12 St","lat":40.71924,"lng":-73.95242,"capacity":39},{"name":"31 Ave & 14 St","lat":40.7682,"lng":-73.93227,"capacity":19},{"name":"Lenox Ave & W 111 St","lat":40.79879,"lng":-73.9523,"capacity":36},{"name":"Kent Ave & N 7 St","lat":40.72037,"lng":-73.96165,"capacity":79},{"name":"Hancock St & Wyckoff Ave","lat":40.6972,"lng":-73.90674,"capacity":19},{"name":"Harman St & Seneca Ave","lat":40.70577,"lng":-73.91292,"capacity":19},{"name":"Hudson St & N Moore St","lat":40.71989,"lng":-74.00863,"capacity":69},{"name":"Richards St & Delavan St","lat":40.67943,"lng":-74.00785,"capacity":19},{"name":"E 10 St & Ave A","lat":40.72741,"lng":-73.98142,"capacity":107},{"name":"1 Ave & E 18 St","lat":40.73381,"lng":-73.98054,"capacity":54},{"name":"100 St & Lewis Ave","lat":40.73988,"lng":-73.86012,"capacity":21},{"name":"77 St & Colonial Rd","lat":40.63121,"lng":-74.03318,"capacity":14},{"name":"E 53 St & Madison Ave","lat":40.75971,"lng":-73.97402,"capacity":51},{"name":"53 St & 5 Ave","lat":40.64337,"lng":-74.01188,"capacity":30},{"name":"W 54 St & 11 Ave","lat":40.76833,"lng":-73.99257,"capacity":59},{"name":"8 Ave & W 38 St","lat":40.75461,"lng":-73.99177,"capacity":65},{"name":"43 Ave & 111 St","lat":40.74955,"lng":-73.85464,"capacity":19},{"name":"14 St & 5 Ave","lat":40.66629,"lng":-73.98895,"capacity":21},{"name":"Union Ave & Jackson St","lat":40.71608,"lng":-73.95203,"capacity":19},{"name":"30 Ave & 41 St","lat":40.76342,"lng":-73.91414,"capacity":23},{"name":"Prospect Pl & 6 Ave","lat":40.67933,"lng":-73.9752,"capacity":25},{"name":"E 72 St & Park Ave","lat":40.77118,"lng":-73.96409,"capacity":43},{"name":"DeKalb Ave & S Portland Ave","lat":40.68967,"lng":-73.97527,"capacity":23},{"name":"Riverdale Ave & W 261 St","lat":40.90972,"lng":-73.90324,"capacity":12},{"name":"Morris Ave & E Burnside Ave","lat":40.85322,"lng":-73.90546,"capacity":21},{"name":"31 Ave & 30 St","lat":40.7647,"lng":-73.92403,"capacity":21},{"name":"Steinway St & 23 Ave","lat":40.77139,"lng":-73.90774,"capacity":21},{"name":"Lorimer St & Harrison Ave","lat":40.70273,"lng":-73.94984,"capacity":18},{"name":"81 St & 24 Ave","lat":40.76466,"lng":-73.88803,"capacity":19},{"name":"20 Ave & Shore Blvd","lat":40.78599,"lng":-73.9151,"capacity":19},{"name":"Woodside Ave & 60 St","lat":40.74521,"lng":-73.90462,"capacity":21},{"name":"E 106 St & 1 Ave","lat":40.78925,"lng":-73.93956,"capacity":26},{"name":"W 37 St & 5 Ave","lat":40.75038,"lng":-73.98339,"capacity":60},{"name":"Bainbridge Ave & E 198 St","lat":40.86849,"lng":-73.88846,"capacity":23},{"name":"61 St & 60 Ln","lat":40.70055,"lng":-73.8943,"capacity":18},{"name":"99 St & 50 Ave","lat":40.74278,"lng":-73.86226,"capacity":21},{"name":"W 16 St & The High Line","lat":40.74335,"lng":-74.00682,"capacity":60},{"name":"24 Ave & 26 St","lat":40.77459,"lng":-73.91854,"capacity":19},{"name":"Halsey St & Broadway","lat":40.68565,"lng":-73.91564,"capacity":20},{"name":"Clermont Ave & Lafayette Ave","lat":40.68764,"lng":-73.96969,"capacity":51},{"name":"33 St & Queens Blvd","lat":40.74437,"lng":-73.93172,"capacity":24},{"name":"Greene Ave & Throop Ave","lat":40.68949,"lng":-73.94206,"capacity":19},{"name":"Perry Ave & E 204 St","lat":40.87318,"lng":-73.87856,"capacity":22},{"name":"57 St & 43 Ave","lat":40.74324,"lng":-73.908,"capacity":20},{"name":"21 St & 36 Ave","lat":40.76019,"lng":-73.93627,"capacity":19},{"name":"Broadway & Hancock St","lat":40.68661,"lng":-73.91683,"capacity":35},{"name":"W 13 St & 5 Ave","lat":40.73545,"lng":-73.99431,"capacity":43},{"name":"2 Ave & E 99 St","lat":40.78626,"lng":-73.94553,"capacity":31},{"name":"Classon Ave & St Marks Ave","lat":40.67651,"lng":-73.95943,"capacity":27},{"name":"25 Ave & 85 St","lat":40.76328,"lng":-73.88404,"capacity":19},{"name":"Caton Ave & Argyle Rd","lat":40.64968,"lng":-73.96783,"capacity":21},{"name":"Grand St & Wythe Ave","lat":40.71575,"lng":-73.96433,"capacity":56},{"name":"Center Blvd & 48 Ave","lat":40.74504,"lng":-73.95754,"capacity":27},{"name":"Park Ave & Marcus Garvey Blvd","lat":40.69862,"lng":-73.94134,"capacity":23},{"name":"48 St & 50 Ave","lat":40.73737,"lng":-73.91803,"capacity":21},{"name":"Frederick Douglass Blvd & W 115 St","lat":40.80387,"lng":-73.95593,"capacity":33},{"name":"W 51 St & Rockefeller Plaza","lat":40.75974,"lng":-73.97812,"capacity":51},{"name":"Jerome Ave & W 177 St","lat":40.85012,"lng":-73.91076,"capacity":29},{"name":"Monroe St & Classon Ave","lat":40.68457,"lng":-73.95881,"capacity":19},{"name":"E 46 St & Madison Ave","lat":40.75539,"lng":-73.9776,"capacity":53},{"name":"Bedford Ave & Montgomery St","lat":40.66582,"lng":-73.95693,"capacity":27},{"name":"2 Ave & E 31 St","lat":40.74299,"lng":-73.97711,"capacity":81},{"name":"6 Ave & 78 St","lat":40.62569,"lng":-74.02119,"capacity":12},{"name":"32 Ave & 75 St","lat":40.75704,"lng":-73.8924,"capacity":19},{"name":"Marion Ave & Mosholu Pkwy","lat":40.8705,"lng":-73.88188,"capacity":21},{"name":"Sedgwick Ave & Hillman Ave","lat":40.88224,"lng":-73.89136,"capacity":25},{"name":"Graham Ave & Herbert St","lat":40.71929,"lng":-73.945,"capacity":26},{"name":"Bedford Ave & Clarkson Ave","lat":40.65519,"lng":-73.9564,"capacity":20},{"name":"Cliff St & Fulton St","lat":40.70838,"lng":-74.00495,"capacity":65},{"name":"W 120 St & Claremont Ave","lat":40.81095,"lng":-73.9634,"capacity":39},{"name":"Fulton Ave & E 172 St","lat":40.83923,"lng":-73.89905,"capacity":19},{"name":"50 St & 30 Ave","lat":40.76008,"lng":-73.90711,"capacity":23},{"name":"72 St & Woodside Ave","lat":40.74288,"lng":-73.89283,"capacity":19},{"name":"72 St & Broadway","lat":40.74751,"lng":-73.89372,"capacity":20},{"name":"74 St & 37 Ave","lat":40.74908,"lng":-73.89172,"capacity":30},{"name":"W 94 St & Central Park W","lat":40.79043,"lng":-73.96589,"capacity":47},{"name":"31 St & Astoria Blvd","lat":40.76992,"lng":-73.91841,"capacity":31},{"name":"W 50 St & 10 Ave","lat":40.76473,"lng":-73.99194,"capacity":55},{"name":"4 Ave & 3 St","lat":40.67375,"lng":-73.98565,"capacity":39},{"name":"Norman Ave & Leonard St","lat":40.72582,"lng":-73.95082,"capacity":31},{"name":"Southpoint Park","lat":40.7537,"lng":-73.95865,"capacity":36},{"name":"Fulton St & William St","lat":40.7096,"lng":-74.00655,"capacity":43},{"name":"Academy St & Nagle Ave","lat":40.86256,"lng":-73.92266,"capacity":20},{"name":"River Ave & E 151 St","lat":40.82222,"lng":-73.92894,"capacity":27},{"name":"Hancock St & Stuyvesant Ave","lat":40.68454,"lng":-73.9322,"capacity":19},{"name":"E 180 St & Prospect Ave","lat":40.84696,"lng":-73.88663,"capacity":22},{"name":"Gerard Ave & E 164 St","lat":40.83026,"lng":-73.92339,"capacity":19},{"name":"Borden Ave & 25 St","lat":40.73961,"lng":-73.94515,"capacity":27},{"name":"Broadway & W 238 St","lat":40.88524,"lng":-73.90077,"capacity":30},{"name":"E 149 St & Jackson Ave","lat":40.81317,"lng":-73.90923,"capacity":23},{"name":"1 Ave & E 44 St","lat":40.75002,"lng":-73.96905,"capacity":87},{"name":"11 Ave & W 41 St","lat":40.7603,"lng":-73.99884,"capacity":55},{"name":"Mt Morris Park W & W 120 St","lat":40.80404,"lng":-73.94592,"capacity":27},{"name":"Forley St & Lamont Ave","lat":40.74463,"lng":-73.87386,"capacity":21},{"name":"Park Ave & E Tremont Ave","lat":40.84731,"lng":-73.89981,"capacity":24},{"name":"Bedford Ave & Bergen St","lat":40.67637,"lng":-73.95292,"capacity":24},{"name":"45 Ave & 21 St","lat":40.74737,"lng":-73.94777,"capacity":21},{"name":"E 141 St & Jackson Ave","lat":40.8069,"lng":-73.91184,"capacity":19},{"name":"Dean St & Franklin Ave","lat":40.67759,"lng":-73.95564,"capacity":21},{"name":"Gerard Ave & E 165 St","lat":40.83173,"lng":-73.92239,"capacity":21},{"name":"W 51 St & 7 Ave","lat":40.76167,"lng":-73.98256,"capacity":78},{"name":"Cleveland Pl & Spring St","lat":40.7221,"lng":-73.99725,"capacity":33},{"name":"Marcus Garvey Blvd & Macon St","lat":40.6826,"lng":-73.93804,"capacity":19},{"name":"Lewis Ave & Madison St","lat":40.68631,"lng":-73.93578,"capacity":23},{"name":"Crescent St & Broadway","lat":40.76336,"lng":-73.92865,"capacity":19},{"name":"4 Ave & 99 St","lat":40.61327,"lng":-74.03315,"capacity":16},{"name":"Park Pl & Church St","lat":40.71334,"lng":-74.00936,"capacity":54},{"name":"38 Ave & 29 St","lat":40.75473,"lng":-73.93367,"capacity":19},{"name":"61 St & Laurel Hill Blvd","lat":40.7388,"lng":-73.90338,"capacity":19},{"name":"Cadman Plaza E & Red Cross Pl","lat":40.69992,"lng":-73.98972,"capacity":39},{"name":"E 153 St & E 157 St","lat":40.82668,"lng":-73.92933,"capacity":19},{"name":"48 St & Skillman Ave","lat":40.74623,"lng":-73.91616,"capacity":22},{"name":"Plaza St West & Flatbush Ave","lat":40.67502,"lng":-73.97111,"capacity":49},{"name":"Adelphi St & Myrtle Ave","lat":40.69308,"lng":-73.97179,"capacity":28},{"name":"McKibbin St & Manhattan Ave","lat":40.70511,"lng":-73.94407,"capacity":23},{"name":"Goulden Ave & W 205 St","lat":40.87812,"lng":-73.89192,"capacity":19},{"name":"Corona Ave & 90 St","lat":40.74154,"lng":-73.87484,"capacity":22},{"name":"Amsterdam Ave & W 152 St","lat":40.82952,"lng":-73.94428,"capacity":20},{"name":"Pearl St & Whitehall St","lat":40.70314,"lng":-74.01318,"capacity":44},{"name":"Leonard St & Maujer St","lat":40.71037,"lng":-73.94706,"capacity":24},{"name":"71 Ave & 110 St","lat":40.72232,"lng":-73.8417,"capacity":18},{"name":"Bailey Ave & W 238 St","lat":40.88394,"lng":-73.89824,"capacity":19},{"name":"E 33 St & Park Ave","lat":40.74653,"lng":-73.98214,"capacity":72},{"name":"King St & Varick St","lat":40.7279,"lng":-74.00536,"capacity":36},{"name":"Broadway & W 251 St","lat":40.89415,"lng":-73.89642,"capacity":18},{"name":"Centre St & Chambers St","lat":40.71273,"lng":-74.00461,"capacity":57},{"name":"Irving Ave & DeKalb Ave","lat":40.7027,"lng":-73.92095,"capacity":27},{"name":"Murray St & Greenwich St","lat":40.71485,"lng":-74.01122,"capacity":49},{"name":"Columbus Ave & W 103 St","lat":40.79693,"lng":-73.96434,"capacity":40},{"name":"E 169 St & Webster Ave","lat":40.83402,"lng":-73.90886,"capacity":21},{"name":"Rockaway Ave & Bainbridge St","lat":40.6832,"lng":-73.91167,"capacity":25},{"name":"MacDougal St & Prince St","lat":40.7271,"lng":-74.00297,"capacity":47},{"name":"Nassau St & Navy St","lat":40.6984,"lng":-73.98069,"capacity":58},{"name":"Congress St & Hicks St","lat":40.6894,"lng":-73.99951,"capacity":35},{"name":"E 138 St & Grand Concourse","lat":40.81322,"lng":-73.9306,"capacity":21},{"name":"Grand Concourse & E 205 St","lat":40.87553,"lng":-73.88639,"capacity":19},{"name":"Lawrence St & Willoughby St","lat":40.69236,"lng":-73.98632,"capacity":39},{"name":"Valentine Ave & E 198 St","lat":40.86941,"lng":-73.88994,"capacity":21},{"name":"E 25 St & 1 Ave","lat":40.73818,"lng":-73.97739,"capacity":35},{"name":"E 204 St & Webster Ave","lat":40.87095,"lng":-73.87679,"capacity":21},{"name":"Rutgers St & Henry St","lat":40.71332,"lng":-73.9901,"capacity":40},{"name":"Prospect Ave & Longwood Ave","lat":40.81899,"lng":-73.90202,"capacity":29},{"name":"Strong St & University Ave","lat":40.87119,"lng":-73.89918,"capacity":20},{"name":"Windsor Pl & Howard Pl","lat":40.65949,"lng":-73.98014,"capacity":24},{"name":"Featherbed Ln & Jerome Ave","lat":40.84551,"lng":-73.91431,"capacity":21},{"name":"E 180 St & Monterey Ave","lat":40.85025,"lng":-73.89301,"capacity":21},{"name":"Waterbury St & Stagg St","lat":40.71019,"lng":-73.93734,"capacity":23},{"name":"Tilden Ave & Nostrand Ave","lat":40.64683,"lng":-73.94933,"capacity":10},{"name":"Cabrini Blvd & W 177 St","lat":40.84828,"lng":-73.94134,"capacity":24},{"name":"Kingston Ave & Park Pl","lat":40.67308,"lng":-73.94191,"capacity":21},{"name":"Maurice Ave & 53 Dr","lat":40.73028,"lng":-73.90421,"capacity":15},{"name":"E 134 St & Walnut Ave","lat":40.80042,"lng":-73.91103,"capacity":16},{"name":"Montague St & Hicks St","lat":40.69522,"lng":-73.99599,"capacity":36},{"name":"Grand Concourse & E 175 St","lat":40.84628,"lng":-73.90931,"capacity":24},{"name":"Grand Ave & 55 St","lat":40.71888,"lng":-73.91427,"capacity":19},{"name":"Lefferts Pl & Franklin Ave","lat":40.68034,"lng":-73.95577,"capacity":25},{"name":"Madison St & Montgomery St","lat":40.71313,"lng":-73.98484,"capacity":20},{"name":"7 Ave & 20 St","lat":40.65905,"lng":-73.98854,"capacity":20},{"name":"Bedford Ave & S 9 St","lat":40.70853,"lng":-73.96409,"capacity":23},{"name":"Seneca Ave & Decatur St","lat":40.69723,"lng":-73.89811,"capacity":20},{"name":"Grand Concourse & E 171 St","lat":40.83955,"lng":-73.913,"capacity":25},{"name":"Pacific St & Ralph Ave","lat":40.67607,"lng":-73.92171,"capacity":19},{"name":"Division Ave & Hooper St","lat":40.70684,"lng":-73.95444,"capacity":61},{"name":"Broadway & W 142 St","lat":40.82469,"lng":-73.95195,"capacity":23},{"name":"Macon St & Lewis Ave","lat":40.68282,"lng":-73.93488,"capacity":20},{"name":"E 55 St & 2 Ave","lat":40.75797,"lng":-73.96603,"capacity":29},{"name":"Brooklyn Ave & Snyder Ave","lat":40.64915,"lng":-73.94368,"capacity":22},{"name":"Bedford Ave & Fenimore St","lat":40.65815,"lng":-73.95674,"capacity":20},{"name":"E 20 St & 2 Ave","lat":40.73588,"lng":-73.98205,"capacity":84},{"name":"111 St & 37 Ave","lat":40.75397,"lng":-73.85748,"capacity":23},{"name":"Crotona Park North & Prospect Ave","lat":40.84109,"lng":-73.89232,"capacity":19},{"name":"Nostrand Ave & Flushing Ave","lat":40.69928,"lng":-73.95326,"capacity":25},{"name":"Margaret Corbin Plz & Ft Washington Ave","lat":40.85917,"lng":-73.93387,"capacity":25},{"name":"Dean St & Hoyt St","lat":40.68644,"lng":-73.98759,"capacity":77},{"name":"Queens Plaza North & Crescent St","lat":40.7511,"lng":-73.94074,"capacity":44},{"name":"St Nicholas Ave & W 134 St","lat":40.81623,"lng":-73.94822,"capacity":27},{"name":"E 161 St & River Ave","lat":40.82788,"lng":-73.92711,"capacity":38},{"name":"5 St & 6 Ave","lat":40.67048,"lng":-73.98209,"capacity":23},{"name":"Woodside Ave & Roosevelt Ave","lat":40.74549,"lng":-73.90605,"capacity":19},{"name":"W 76 St & Columbus Ave","lat":40.78018,"lng":-73.97729,"capacity":51},{"name":"Walton Ave & E 171 St","lat":40.84068,"lng":-73.91507,"capacity":19},{"name":"Wallabout St & Kent Ave","lat":40.6991,"lng":-73.96063,"capacity":23},{"name":"43 St & 23 Ave","lat":40.76967,"lng":-73.90602,"capacity":23},